$GPGSA,A,3,01,17,07,21,19,14,30,08,,,,,1.19,0.91,0.76*07
$GLGSA,A,3,85,87,75,76,,,,,,,,,1.19,0.91,0.76*1F
$GNRMC,045523.000,A,3813.1379,N,08545.1940,W,0.34,283.40,201022,,,A*6B
$GNVTG,283.40,T,,M,0.34,N,0.62,K,A*2D
$GNRMC,045518.000,A,3813.1375,N,08545.1935,W,0.17,291.30,201022,,,A*68$GNVTG,291.30,T,,M,0.17,N,0.32,K,A*2D1935,W,0.17,291.30,201022,,,A*68$GNVTG,2.84,T,,M,0.28,N,0.51,K,A*23$GNRMC,045508.000,A,3813.1375,N,08545.1935,W,0.07,2.84,201022,,,A*6F$GNVTG,2.èf$GPGSA,A,3,01,17,07,21,19,14,30,08,,,,,1.19,0.91,0.76*07$GLGSA,A,3,85,87,75,76,,,,,,,,,1.19,0.91,0.76*1F$GNGGA,045524.000,3813.1379,N,08545.1941,W,1,13,0.80,167.0,M,-33.2,M,,*43
$GPGSA,A,3,01,17,07,21,19,14,13,30,08,,,,1.09,0.80,0.74*06
$GLGSA,A,3,85,87,75,76,,,,,,,,,1.09,0.80,0.74*1C
$GNRMC,045524.000,A,3813.1379,N,08545.1941,W,0.64,111.62,201022,,,A*60
$GNVTG,111.62,T,,M,0.64,N,1.18,K,A*2C
$GNRMC,045523.000,A,3813.1379,N,08545.1940,W,0.34,283.40,201022,,,A*6B$GNVTG,283.40,T,,M,0.34,N,0.62,K,A*2D1940,W,0.34,283.40,201022,,,A*6B$GNRMC,045518.000,A,3813.1375,N,08545.1935,W,0.17,291.30,201022,,,A*68$GNVTG,291.30,T,,M,0.17,N,0.32,K,A*2D1935,W,0.17,291.30,201022,,,A*68$GNVTG,2.84,T,,M,0.28,N,0.51,K,A*23$GNRMC,045508.000,A,3813.1375,N,08545.1935,W,0.07,2.84,201022,,,A*6F$GNVTG,2.èf$GPGSA,A,3,01,17,07,21,19,14,13,30,08,,,,1.09,0.80,0.74*06$GLGSA,A,3,85,87,75,76,,,,,,,,,1.09,0.80,0.74*1C$GNRMC,045524.000,A,3813.1379,N,08545.1941,W,0.64,111.62,201022,,,A*60$GNVTG,111.62,T,,M,0.64,N,1.18,K,A*2C$GNGGA,045525.000,3813.1379,N,08545.1941,W,1,12,0.91,167.1,M,-33.2,M,,*42
$GPGSA,A,3,01,17,07,21,19,14,30,08,,,,,1.19,0.91,0.76*07
$GLGSA,A,3,85,87,75,76,,,,,,,,,1.19,0.91,0.76*1F
$GNRMC,045525.000,A,3813.1379,N,08545.1941,W,0.62,55.29,201022,,,A*59
$GNVTG,55.29,T,,M,0.62,N,1.15,K,A*19
$GNRMC,045523.000,A,3813.1379,N,08545.1940,W,0.34,283.40,201022,,,A*6B$GNVTG,283.40,T,,M,0.34,N,0.62,K,A*2D1940,W,0.34,283.40,201022,,,A*6B$GNRMC,045518.000,A,3813.1375,N,08545.1935,W,0.17,291.30,201022,,,A*68$GNVTG,291.30,T,,M,0.17,N,0.32,K,A*2D1935,èf$GPGSA,A,3,01,17,07,21,19,14,30,08,,,,,1.19,0.91,0.76*07$GLGSA,A,3,85,87,75,76,,,,,,,,,1.19,0.91,0.76*1F$GNRMC,045525.000,A,3813.1379,N,08545.1941,W,0.62,55.29,201022,,,A*59$GNVTG,55.29,T,,M,0.62,N,1.15,K,A*19$GNGGA,045526.000,3813.1379,N,08545.1939,W,1,13,0.80,167.2,M,-33.2,M,,*4C
$GPGSA,A,3,01,17,07,21,19,14,13,30,08,,,,1.09,0.80,0.74*06
$GLGSA,A,3,85,87,75,76,,,,,,,,,1.09,0.80,0.74*1C
$GNRMC,045526.000,A,3813.1379,N,08545.1939,W,0.28,55.29,201022,,,A*5B
$GNVTG,55.29,T,,M,0.28,N,0.53,K,A*14
$GNRMC,045523.000,A,3813.1379,N,08545.1940,W,0.34,283.40,201022,,,A*6B$GNVTG,283.40,T,,M,0.34,N,0.62,K,A*2D1940,W,0.34,283.40,201022,,,A*6B$GNRMC,045518.000,A,3813.1375,N,08545.1935,W,0.17,291.30,201022,,,A*68$GNVTG,291.30,T,,M,0.17,N,0.32,K,A*2D1935,èf$GPGSA,A,3,01,17,07,21,19,14,13,30,08,,,,1.09,0.80,0.74*06$GLGSA,A,3,85,87,75,76,,,,,,,,,1.09,0.80,0.74*1C$GNRMC,045526.000,A,3813.1379,N,08545.1939,W,0.28,55.29,201022,,,A*5B$GNVTG,55.29,T,,M,0.28,N,0.53,K,A*14.1939,W,0.28,55.29,201022,,,A*5B$GNGGA,045527.000,3813.1380,N,08545.1939,W,1,13,0.80,167.2,M,-33.2,M,,*4B
$GPGSA,A,3,01,17,07,21,19,14,13,30,08,,,,1.09,0.80,0.74*06
$GLGSA,A,3,85,87,75,76,,,,,,,,,1.09,0.80,0.74*1C
$GPGSV,3,1,12,30,66,211,30,14,65,332,31,17,56,255,26,01,55,089,37*7B
$GPGSV,3,2,12,21,38,055,34,07,38,168,20,19,23,241,26,13,21,283,17*71
$GPGSV,3,3,12,08,11,057,16,15,03,307,,03,02,121,,45,,,*46
$GLGSV,2,1,07,76,70,085,29,87,53,205,30,77,47,332,,75,18,127,32*63
$GLGSV,2,2,07,85,14,031,17,88,06,209,20,68,02,321,*5D
$GNRMC,045527.000,A,3813.1380,N,08545.1939,W,0.55,55.29,201022,,,A*56
$GNVTG,55.29,T,,M,0.55,N,1.03,K,A*1A
$GNRMC,045523.000,A,3813.1379,N,08545.1940,W,0.34,283.40,201022,,,A*6B$GNVTG,283.40,T,,M,0.34,N,0.62,K,A*2D1940,W,0.34,283.40,201022,,,A*6B$GNRMC,045518.000,A,3813.1375,N,08545.1935,W,0.17,291.30,201022,,,A*68$GNVTG,291.30,T,,M,0.17,N,0.32,K,A*2D1935,èf$GPGSA,A,3,01,17,07,21,19,14,13,30,08,,,,1.09,0.80,0.74*06$GLGSA,A,3,85,87,75,76,,,,,,,,,1.09,0.80,0.74*1C$GPGSV,3,1,12,30,66,211,30,14,65,332,31,17,56,255,26,01,55,089,37*7B$GPGSV,3,2,12,21,38,055,34,07,38,168,20,19,23,241,26,13,21,283,17*71$GPGSV,3,3,12,08,11,057,16,15,03,307,,03,02,121,,45,,,*46$GLGSV,2,1,07,76,70,085,29,87,53,205,30,77,47,332,,75,18,127,32*63$GLGSV,2,2,07,85,14,031,17,88,06,209,20,68,02,321,*5D$GNRMC,045527.000,A,3813.1380,N,08545.1939,W,0.55,55.29,201022,,,A*56$GNVTG,55.29,T,,M,0.55,N,1.03,K,A*1A$GNGGA,045528.000,3813.1379,N,08545.1941,W,1,12,0.91,167.1,M,-33.2,M,,*4F
$GPGSA,A,3,01,17,07,21,19,14,30,08,,,,,1.19,0.91,0.76*07
$GLGSA,A,3,85,87,75,76,,,,,,,,,1.19,0.91,0.76*1F
$GNRMC,045528.000,A,3813.1379,N,08545.1941,W,0.72,245.09,201022,,,A*64
$GNVTG,245.09,T,,M,0.72,N,1.33,K,A*2D
$GNRMC,045523.000,A,3813.1379,N,08545.1940,W,0.34,283.40,201022,,,A*6B$GNVTG,283.40,T,,M,0.34,N,0.62,K,A*2D1940,W,0.34,283.40,201022,,,A*6B$GNRMC,045518.000,A,3813.1375,N,08545.1935,W,0.17,291.30,201022,,,A*68$GNVTG,291.30,T,,M,0.17,N,0.32,K,A*2D1935,èf$GPGSA,A,3,01,17,07,21,19,14,30,08,,,,,1.19,0.91,0.76*07$GLGSA,A,3,85,87,75,76,,,,,,,,,1.19,0.91,0.76*1F$GNGGA,045529.000,3813.1379,N,08545.1943,W,1,13,0.80,167.1,M,-33.2,M,,*4D
$GPGSA,A,3,01,17,07,21,19,14,13,30,08,,,,1.09,0.80,0.74*06
$GLGSA,A,3,85,87,75,76,,,,,,,,,1.09,0.80,0.74*1C
$GNRMC,045529.000,A,3813.1379,N,08545.1943,W,0.70,252.64,201022,,,A*68
$GNVTG,252.64,T,,M,0.70,N,1.30,K,A*21
$GNRMC,045528.000,A,3813.1379,N,08545.1941,W,0.72,245.09,201022,,,A*64$GNVTG,245.09,T,,M,0.72,N,1.33,K,A*2D1941,W,0.72,245.09,201022,,,A*64$GNRMC,045523.000,A,3813.1379,N,08545.1940,W,0.34,283.40,201022,,,A*6B$GNVTG,283.40,T,,M,0.34,N,0.62,K,A*2D1940,W,0.34,283.40,201022,,,A*6B$GNRMC,045518.000,A,3813.1375,N,08545.1935,W,0.17,291.30,201022,,,A*68$GNVTG,291.30,T,,M,0.17,N,0.32,K,A*2D1935,èf$GPGSA,A,3,01,17,07,21,19,14,13,30,08,,,,1.09,0.80,0.74*06$GLGSA,A,3,85,87,75,76,,,,,,,,,1.09,0.80,0.74*1C$GNRMC,045529.000,A,3813.1379,N,08545.1943,W,0.70,252.64,201022,,,A*68$GNVTG,252.64,T,,M,0.70,N,1.30,K,A*21$GNGGA,045530.000,3813.1380,N,08545.1944,W,1,13,0.80,167.0,M,-33.2,M,,*45
$GPGSA,A,3,01,17,07,21,19,14,13,30,08,,,,1.09,0.80,0.74*06
$GLGSA,A,3,85,87,75,76,,,,,,,,,1.09,0.80,0.74*1C
$GNRMC,045530.000,A,3813.1380,N,08545.1944,W,0.43,252.64,201022,,,A*61
$GNVTG,252.64,T,,M,0.43,N,0.80,K,A*2B
$GNRMC,045528.000,A,3813.1379,N,08545.1941,W,0.72,245.09,201022,,,A*64$GNVTG,245.09,T,,M,0.72,N,1.33,K,A*2D1941,W,0.72,245.09,201022,,,A*64$GNRMC,045523.000,A,3813.1379,N,08545.1940,W,0.34,283.40,201022,,,A*6B$GNVTG,283.40,T,,M,0.34,N,0.62,K,A*2D1940,èf$GPGSA,A,3,01,17,07,21,19,14,13,30,08,,,,1.09,0.80,0.74*06$GLGSA,A,3,85,87,75,76,,,,,,,,,1.09,0.80,0.74*1C$GNRMC,045530.000,A,3813.1380,N,08545.1944,W,0.43,252.64,201022,,,A*61$GNVTG,252.64,T,,M,0.43,N,0.80,K,A*2B$GNGGA,045531.000,3813.1382,N,08545.1946,W,1,13,0.80,166.8,M,-33.2,M,,*4D
$GPGSA,A,3,01,17,07,21,19,14,13,30,08,,,,1.09,0.80,0.74*06
$GLGSA,A,3,85,87,75,76,,,,,,,,,1.09,0.80,0.74*1C
$GNRMC,045531.000,A,3813.1382,N,08545.1946,W,0.91,78.01,201022,,,A*56
$GNVTG,78.01,T,,M,0.91,N,1.68,K,A*1A
$GNRMC,045528.000,A,3813.1379,N,08545.1941,W,0.72,245.09,201022,,,A*64$GNVTG,245.09,T,,M,0.72,N,1.33,K,A*2D1941,W,0.72,245.09,201022,,,A*64$GNRMC,045523.000,A,3813.1379,N,08545.1940,W,0.34,283.40,201022,,,A*6B$GNVTG,283.40,T,,M,0.34,N,0.62,K,A*2D1940,èf$GPGSA,A,3,01,17,07,21,19,14,13,30,08,,,,1.09,0.80,0.74*06$GLGSA,A,3,85,87,75,76,,,,,,,,,1.09,0.80,0.74*1C$GNRMC,045531.000,A,3813.1382,N,08545.1946,W,0.91,78.01,201022,,,A*56$GNVTG,78.01,T,,M,0.91,N,1.68,K,A*1A$GNGGA,045532.000,3813.1383,N,08545.1944,W,1,13,0.80,167.0,M,-33.2,M,,*44
$GPGSA,A,3,01,17,07,21,19,14,13,30,08,,,,1.09,0.80,0.74*06
$GLGSA,A,3,85,87,75,76,,,,,,,,,1.09,0.80,0.74*1C
$GPGSV,3,1,12,14,66,334,33,30,66,211,31,17,56,255,27,01,55,089,37*7C
$GPGSV,3,2,12,21,38,055,34,07,38,168,20,19,23,241,23,13,21,283,17*74
$GPGSV,3,3,12,08,11,057,17,15,03,307,,03,02,121,,47,,,*45
$GLGSV,2,1,07,76,70,085,30,87,53,205,30,77,47,332,,75,18,127,31*68
$GLGSV,2,2,07,85,14,031,19,88,06,209,21,68,02,321,*52
$GNRMC,045532.000,A,3813.1383,N,08545.1944,W,0.76,80.36,201022,,,A*5C
$GNVTG,80.36,T,,M,0.76,N,1.40,K,A*1A
$GNRMC,045528.000,A,3813.1379,N,08545.1941,W,0.72,245.09,201022,,,A*64$GNVTG,245.09,T,,M,0.72,N,1.33,K,A*2D1941,W,0.72,245.09,201022,,,A*64$GNRMC,045523.000,A,3813.1379,N,08545.1940,W,0.34,283.40,201022,,,A*6B$GNVTG,283.40,T,,M,0.34,N,0.62,K,A*2D1940,èf$GPGSA,A,3,01,17,07,21,19,14,13,30,08,,,,1.09,0.80,0.74*06$GLGSA,A,3,85,87,75,76,,,,,,,,,1.09,0.80,0.74*1C$GPGSV,3,1,12,14,66,334,33,30,66,211,31,17,56,255,27,01,55,089,37*7C$GPGSV,3,2,12,21,38,055,34,07,38,168,20,19,23,241,23,13,21,283,17*74$GPGSV,3,3,12,08,11,057,17,15,03,307,,03,02,121,,47,,,*45$GLGSV,2,1,07,76,70,085,30,87,53,205,30,77,47,332,,75,18,127,31*68$GLGSV,2,2,07,85,14,031,19,88,06,209,21,68,02,321,*52$GNRMC,045532.000,A,3813.1383,N,08545.1944,W,0.76,80.36,201022,,,A*5C$GNVTG,80.36,T,,M,0.76,N,1.40,K,A*1A$GNGGA,045533.000,3813.1384,N,08545.1943,W,1,13,0.80,167.2,M,-33.2,M,,*47
$GPGSA,A,3,01,17,07,21,19,14,13,30,08,,,,1.09,0.80,0.74*06
$GLGSA,A,3,85,87,75,76,,,,,,,,,1.09,0.80,0.74*1C
$GNRMC,045533.000,A,3813.1384,N,08545.1943,W,0.45,80.36,201022,,,A*5D
$GNVTG,80.36,T,,M,0.45,N,0.84,K,A*13
$GNRMC,045528.000,A,3813.1379,N,08545.1941,W,0.72,245.09,201022,,,A*64$GNVTG,245.09,T,,M,0.72,N,1.33,K,A*2D1941,W,0.72,245.09,201022,,,A*64$GNRMC,045523.000,A,3813.1379,N,08545.1940,W,0.34,283.40,201022,,,A*6B$GNVTG,283.40,T,,M,0.34,N,0.62,K,A*2D1940,èf$GPGSA,A,3,01,17,07,21,19,14,13,30,08,,,,1.09,0.80,0.74*06$GLGSA,A,3,85,87,75,76,,,,,,,,,1.09,0.80,0.74*1C$GNGGA,045534.000,3813.1386,N,08545.1943,W,1,13,0.80,167.2,M,-33.2,M,,*42
$GPGSA,A,3,01,17,07,21,19,14,13,30,08,,,,1.09,0.80,0.74*06
$GLGSA,A,3,85,87,75,76,,,,,,,,,1.09,0.80,0.74*1C
$GNRMC,045534.000,A,3813.1386,N,08545.1943,W,0.36,80.36,201022,,,A*5C
$GNVTG,80.36,T,,M,0.36,N,0.66,K,A*1B
$GNRMC,045533.000,A,3813.1384,N,08545.1943,W,0.45,80.36,201022,,,A*5D$GNVTG,80.36,T,,M,0.45,N,0.84,K,A*13.1943,W,0.45,80.36,201022,,,A*5D$GNRMC,045528.000,A,3813.1379,N,08545.1941,W,0.72,245.09,201022,,,A*64$GNVTG,245.09,T,,M,0.72,N,1.33,K,A*2D1941,W,0.72,245.09,201022,,,A*64$GNRMC,045523.000,A,3813.1379,N,08545.1940,W,0.34,283.40,201022,,,A*6B$GNVTG,283.40,T,,M,0.34,N,0.62,K,A*2D1940,èf$GPGSA,A,3,01,17,07,21,19,14,13,30,08,,,,1.09,0.80,0.74*06$GLGSA,A,3,85,87,75,76,,,,,,,,,1.09,0.80,0.74*1C$GNRMC,045534.000,A,3813.1386,N,08545.1943,W,0.36,80.36,201022,,,A*5C$GNVTG,80.36,T,,M,0.36,N,0.66,K,A*1B$GNGGA,045535.000,3813.1387,N,08545.1940,W,1,12,0.91,167.4,M,-33.2,M,,*46
$GPGSA,A,3,01,17,07,21,19,14,30,08,,,,,1.19,0.91,0.76*07
$GLGSA,A,3,85,87,75,76,,,,,,,,,1.19,0.91,0.76*1F
$GNRMC,045535.000,A,3813.1387,N,08545.1940,W,0.58,80.36,201022,,,A*57
$GNVTG,80.36,T,,M,0.58,N,1.07,K,A*15
$GNRMC,045533.000,A,3813.1384,N,08545.1943,W,0.45,80.36,201022,,,A*5D$GNVTG,80.36,T,,M,0.45,N,0.84,K,A*13.1943,W,0.45,80.36,201022,,,A*5D$GNRMC,045528.000,A,3813.1379,N,08545.1941,W,0.72,245.09,201022,,,A*64$GNVTG,245.09,T,,M,0.72,N,1.33,K,A*2D1941,W,èf$GPGSA,A,3,01,17,07,21,19,14,30,08,,,,,1.19,0.91,0.76*07$GLGSA,A,3,85,87,75,76,,,,,,,,,1.19,0.91,0.76*1F$GNRMC,045535.000,A,3813.1387,N,08545.1940,W,0.58,80.36,201022,,,A*57$GNVTG,80.36,T,,M,0.58,N,1.07,K,A*15$GNGGA,045536.000,3813.1389,N,08545.1941,W,1,13,0.80,167.3,M,-33.2,M,,*4C
$GPGSA,A,3,01,17,07,21,19,14,13,30,08,,,,1.09,0.80,0.74*06
$GLGSA,A,3,85,87,75,76,,,,,,,,,1.09,0.80,0.74*1C
$GNRMC,045536.000,A,3813.1389,N,08545.1941,W,0.64,303.95,201022,,,A*65
$GNVTG,303.95,T,,M,0.64,N,1.19,K,A*24
$GNRMC,045533.000,A,3813.1384,N,08545.1943,W,0.45,80.36,201022,,,A*5D$GNVTG,80.36,T,,M,0.45,N,0.84,K,A*13.1943,W,0.45,80.36,201022,,,A*5D$GNRMC,045528.000,A,3813.1379,N,08545.1941,W,0.72,245.09,201022,,,A*64$GNVTG,245.09,T,,M,0.72,N,1.33,K,A*2D1941,W,èf$GPGSA,A,3,01,17,07,21,19,14,13,30,08,,,,1.09,0.80,0.74*06$GLGSA,A,3,85,87,75,76,,,,,,,,,1.09,0.80,0.74*1C$GNRMC,045536.000,A,3813.1389,N,08545.1941,W,0.64,303.95,201022,,,A*65$GNVTG,303.95,T,,M,0.64,N,1.19,K,A*24$GNGGA,045537.000,3813.1391,N,08545.1943,W,1,13,0.80,167.1,M,-33.2,M,,*44
$GPGSA,A,3,01,17,07,21,19,14,13,30,08,,,,1.09,0.80,0.73*01
$GLGSA,A,3,85,87,75,76,,,,,,,,,1.09,0.80,0.73*1B
$GPGSV,3,1,12,14,66,334,32,30,66,211,30,17,56,256,27,01,55,089,37*7F
$GPGSV,3,2,12,07,38,168,19,21,37,054,33,19,24,242,23,13,21,283,18*7C
$GPGSV,3,3,12,08,11,057,17,15,03,307,,03,02,121,,49,,,*4B
$GLGSV,2,1,07,76,70,085,29,87,53,205,30,77,47,332,,75,18,127,30*61
$GLGSV,2,2,07,85,14,031,21,88,06,209,22,68,02,321,*5A
$GNRMC,045537.000,A,3813.1391,N,08545.1943,W,0.59,303.95,201022,,,A*61
$GNVTG,303.95,T,,M,0.59,N,1.09,K,A*2B
$GNRMC,045533.000,A,3813.1384,N,08545.1943,W,0.45,80.36,201022,,,A*5D$GNVTG,80.36,T,,M,0.45,N,0.84,K,A*13.1943,W,0.45,80.36,201022,,,A*5D$GNRMC,045528.000,A,3813.1379,N,08545.1941,W,0.72,245.09,201022,,,A*64$GNVTG,245.09,T,,M,0.72,N,1.33,K,A*2D1941,W,èf$GPGSA,A,3,01,17,07,21,19,14,13,30,08,,,,1.09,0.80,0.73*01$GLGSA,A,3,85,87,75,76,,,,,,,,,1.09,0.80,0.73*1B$GPGSV,3,1,12,14,66,334,32,30,66,211,30,17,56,256,27,01,55,089,37*7F$GPGSV,3,2,12,07,38,168,19,21,37,054,33,19,24,242,23,13,21,283,18*7C$GPGSV,3,3,12,08,11,057,17,15,03,307,,03,02,121,,49,,,*4B$GLGSV,2,1,07,76,70,085,29,87,53,205,30,77,47,332,,75,18,127,30*61$GLGSV,2,2,07,85,14,031,21,88,06,209,22,68,02,321,*5A$GNRMC,045537.000,A,3813.1391,N,08545.1943,W,0.59,303.95,201022,,,A*61$GNVTG,303.95,T,,M,0.59,N,1.09,K,A*2B$GNGGA,045538.000,3813.1392,N,08545.1944,W,1,13,0.80,167.0,M,-33.2,M,,*4E
$GPGSA,A,3,01,17,07,21,19,14,13,30,08,,,,1.09,0.80,0.73*01
$GLGSA,A,3,85,87,75,76,,,,,,,,,1.09,0.80,0.73*1B
$GNRMC,045538.000,A,3813.1392,N,08545.1944,W,0.19,303.95,201022,,,A*6E
$GNVTG,303.95,T,,M,0.19,N,0.35,K,A*21
$GNRMC,045533.000,A,3813.1384,N,08545.1943,W,0.45,80.36,201022,,,A*5D$GNVTG,80.36,T,,M,0.45,N,0.84,K,A*13.1943,W,0.45,80.36,201022,,,A*5D$GNRMC,045528.000,A,3813.1379,N,08545.1941,W,0.72,245.09,201022,,,A*64$GNVTG,245.09,T,,M,0.72,N,1.33,K,A*2D1941,W,èf$GPGSA,A,3,01,17,07,21,19,14,13,30,08,,,,1.09,0.80,0.73*01$GLGSA,A,3,85,87,75,76,,,,,,,,,1.09,0.80,0.73*1B$GNGGA,045539.000,3813.1394,N,08545.1942,W,1,13,0.80,167.0,M,-33.2,M,,*4F
$GPGSA,A,3,01,17,07,21,19,14,13,30,08,,,,1.09,0.80,0.73*01
$GLGSA,A,3,85,87,75,76,,,,,,,,,1.09,0.80,0.73*1B
$GNRMC,045539.000,A,3813.1394,N,08545.1942,W,0.14,303.95,201022,,,A*62
$GNVTG,303.95,T,,M,0.14,N,0.27,K,A*2F
$GNRMC,045538.000,A,3813.1392,N,08545.1944,W,0.19,303.95,201022,,,A*6E$GNVTG,303.95,T,,M,0.19,N,0.35,K,A*211944,W,0.19,303.95,201022,,,A*6E$GNRMC,045533.000,A,3813.1384,N,08545.1943,W,0.45,80.36,201022,,,A*5D$GNVTG,80.36,T,,M,0.45,N,0.84,K,A*13.1943,W,0.45,80.36,201022,,,A*5D$GNRMC,045528.000,A,3813.1379,N,08545.1941,W,0.72,245.09,201022,,,A*64$GNVTG,245.09,T,,M,0.72,N,1.33,K,A*2D1941,W,èf$GPGSA,A,3,01,17,07,21,19,14,13,30,08,,,,1.09,0.80,0.73*01$GLGSA,A,3,85,87,75,76,,,,,,,,,1.09,0.80,0.73*1B$GNRMC,045539.000,A,3813.1394,N,08545.1942,W,0.14,303.95,201022,,,A*62$GNVTG,303.95,T,,M,0.14,N,0.27,K,A*2F$GNGGA,045540.000,3813.1397,N,08545.1943,W,1,13,0.80,167.1,M,-33.2,M,,*42
$GPGSA,A,3,01,17,07,21,19,14,13,30,08,,,,1.09,0.80,0.73*01
$GLGSA,A,3,85,87,75,76,,,,,,,,,1.09,0.80,0.73*1B
$GNRMC,045540.000,A,3813.1397,N,08545.1943,W,0.45,303.95,201022,,,A*6A
$GNVTG,303.95,T,,M,0.45,N,0.84,K,A*22
$GNRMC,045538.000,A,3813.1392,N,08545.1944,W,0.19,303.95,201022,,,A*6E$GNVTG,303.95,T,,M,0.19,N,0.35,K,A*211944,W,0.19,303.95,201022,,,A*6E$GNRMC,045533.000,A,3813.1384,N,08545.1943,W,0.45,80.36,201022,,,A*5D$GNVTG,80.36,T,,M,0.45,N,0.84,K,A*13.1943,Wèf$GPGSA,A,3,01,17,07,21,19,14,13,30,08,,,,1.09,0.80,0.73*01$GLGSA,A,3,85,87,75,76,,,,,,,,,1.09,0.80,0.73*1B$GNRMC,045540.000,A,3813.1397,N,08545.1943,W,0.45,303.95,201022,,,A*6A$GNVTG,303.95,T,,M,0.45,N,0.84,K,A*22$GNGGA,045541.000,3813.1401,N,08545.1944,W,1,12,0.91,167.1,M,-33.2,M,,*4D
$GPGSA,A,3,01,17,07,21,19,14,30,08,,,,,1.19,0.91,0.76*07
$GLGSA,A,3,85,87,75,76,,,,,,,,,1.19,0.91,0.76*1F
$GNRMC,045541.000,A,3813.1401,N,08545.1944,W,0.58,303.95,201022,,,A*68
$GNVTG,303.95,T,,M,0.58,N,1.08,K,A*2B
$GNRMC,045538.000,A,3813.1392,N,08545.1944,W,0.19,303.95,201022,,,A*6E$GNVTG,303.95,T,,M,0.19,N,0.35,K,A*211944,W,0.19,303.95,201022,,,A*6E$GNRMC,045533.000,A,3813.1384,N,08545.1943,W,0.45,80.36,201022,,,A*5D$GNVTG,80.36,T,,M,0.45,N,0.84,K,A*13.1943,Wèf$GPGSA,A,3,01,17,07,21,19,14,30,08,,,,,1.19,0.91,0.76*07$GLGSA,A,3,85,87,75,76,,,,,,,,,1.19,0.91,0.76*1F$GNRMC,045541.000,A,3813.1401,N,08545.1944,W,0.58,303.95,201022,,,A*68$GNVTG,303.95,T,,M,0.58,N,1.08,K,A*2B$GNGGA,045542.000,3813.1399,N,08545.1944,W,1,13,0.80,167.0,M,-33.2,M,,*48
$GPGSA,A,3,01,17,07,21,19,14,13,30,08,,,,1.09,0.80,0.73*01
$GLGSA,A,3,85,87,75,76,,,,,,,,,1.09,0.80,0.73*1B
$GPGSV,3,1,12,14,66,334,32,30,66,211,30,17,56,256,26,01,55,089,36*7F
$GPGSV,3,2,12,51,40,212,,07,38,168,19,21,37,054,31,19,24,242,23*7E
$GPGSV,3,3,12,13,21,283,17,08,11,057,16,15,03,307,,03,02,121,*79
$GLGSV,2,1,07,76,70,085,28,87,53,205,30,77,47,332,,75,18,127,28*69
$GLGSV,2,2,07,85,14,031,20,88,06,209,22,68,02,321,*5B
$GNRMC,045542.000,A,3813.1399,N,08545.1944,W,0.29,303.95,201022,,,A*6B
$GNVTG,303.95,T,,M,0.29,N,0.54,K,A*25
$GNRMC,045538.000,A,3813.1392,N,08545.1944,W,0.19,303.95,201022,,,A*6E$GNVTG,303.95,T,,M,0.19,N,0.35,K,A*211944,W,0.19,303.95,201022,,,A*6E$GNRMC,045533.000,A,3813.1384,N,08545.1943,W,0.45,80.36,201022,,,A*5D$GNVTG,80.36,T,,M,0.45,N,0.84,K,A*13.1943,Wèf$GPGSA,A,3,01,17,07,21,19,14,13,30,08,,,,1.09,0.80,0.73*01$GLGSA,A,3,85,87,75,76,,,,,,,,,1.09,0.80,0.73*1B$GPGSV,3,1,12,14,66,334,32,30,66,211,30,17,56,256,26,01,55,089,36*7F$GPGSV,3,2,12,51,40,212,,07,38,168,19,21,37,054,31,19,24,242,23*7E$GPGSV,3,3,12,13,21,283,17,08,11,057,16,15,03,307,,03,02,121,*79$GLGSV,2,1,07,76,70,085,28,87,53,205,30,77,47,332,,75,18,127,28*69$GLGSV,2,2,07,85,14,031,20,88,06,209,22,68,02,321,*5B$GNRMC,045542.000,A,3813.1399,N,08545.1944,W,0.29,303.95,201022,,,A*6B$GNVTG,303.95,T,,M,0.29,N,0.54,K,A*25$GNGGA,045543.000,3813.1400,N,08545.1944,W,1,13,0.80,166.9,M,-33.2,M,,*46
$GPGSA,A,3,01,17,07,21,19,14,13,30,08,,,,1.09,0.80,0.73*01
$GLGSA,A,3,85,87,75,76,,,,,,,,,1.09,0.80,0.73*1B
$GNRMC,045543.000,A,3813.1400,N,08545.1944,W,0.31,303.95,201022,,,A*64
$GNVTG,303.95,T,,M,0.31,N,0.57,K,A*2F
$GNRMC,045538.000,A,3813.1392,N,08545.1944,W,0.19,303.95,201022,,,A*6E$GNVTG,303.95,T,,M,0.19,N,0.35,K,A*211944,W,0.19,303.95,201022,,,A*6E$GNRMC,045533.000,A,3813.1384,N,08545.1943,W,0.45,80.36,201022,,,A*5D$GNVTG,80.36,T,,M,0.45,N,0.84,K,A*13.1943,Wèf$GPGSA,A,3,01,17,07,21,19,14,13,30,08,,,,1.09,0.80,0.73*01$GLGSA,A,3,85,87,75,76,,,,,,,,,1.09,0.80,0.73*1B$GNGGA,045544.000,3813.1400,N,08545.1943,W,1,13,0.80,167.0,M,-33.2,M,,*4E
$GPGSA,A,3,01,17,07,21,19,14,13,30,08,,,,1.09,0.80,0.73*01
$GLGSA,A,3,85,87,75,76,,,,,,,,,1.09,0.80,0.73*1B
$GNRMC,045544.000,A,3813.1400,N,08545.1943,W,0.52,303.95,201022,,,A*61
$GNVTG,303.95,T,,M,0.52,N,0.96,K,A*27
$GNRMC,045543.000,A,3813.1400,N,08545.1944,W,0.31,303.95,201022,,,A*64$GNVTG,303.95,T,,M,0.31,N,0.57,K,A*2F1944,W,0.31,303.95,201022,,,A*64$GNRMC,045538.000,A,3813.1392,N,08545.1944,W,0.19,303.95,201022,,,A*6E$GNVTG,303.95,T,,M,0.19,N,0.35,K,A*211944,W,0.19,303.95,201022,,,A*6E$GNRMC,045533.000,A,3813.1384,N,08545.1943,W,0.45,80.36,201022,,,A*5D$GNVTG,80.36,T,,M,0.45,N,0.84,K,A*13.1943,Wèf$GPGSA,A,3,01,17,07,21,19,14,13,30,08,,,,1.09,0.80,0.73*011022,,,A*6E$GNVTG,303.95,T,,M,0.19,N,0.35,K,A*211944,W,0.19,303.95,201022,,,A*6E$GNRMC,045533.000,A,3813.1384,N,08545.1943,W,0.45,80.36,201022,,,A*5D$GNVTG,80.36,T,,M,0.45,N,0.84,K,A*13.1943,Wèf$GLGSA,A,3,85,87,75,76,,,,,,,,,1.09,0.80,0.73*1B$GNRMC,045544.000,A,3813.1400,N,08545.1943,W,0.52,303.95,201022,,,A*61$GNVTG,303.95,T,,M,0.52,N,0.96,K,A*27$GNGGA,045545.000,3813.1401,N,08545.1943,W,1,12,0.91,167.0,M,-33.2,M,,*4F
$GPGSA,A,3,01,17,07,21,19,14,30,08,,,,,1.19,0.91,0.76*07
$GLGSA,A,3,85,87,75,76,,,,,,,,,1.19,0.91,0.76*1F
$GNRMC,045545.000,A,3813.1401,N,08545.1943,W,0.45,303.95,201022,,,A*67
$GNVTG,303.95,T,,M,0.45,N,0.82,K,A*24
$GNRMC,045543.000,A,3813.1400,N,08545.1944,W,0.31,303.95,201022,,,A*64$GNVTG,303.95,T,,M,0.31,N,0.57,K,A*2F1944,W,0.31,303.95,201022,,,A*64$GNRMC,045538.000,A,3813.1392,N,08545.1944,W,0.19,303.95,201022,,,A*6E$GNVTG,303.95,T,,M,0.19,N,0.35,K,A*211944,èf$GPGSA,A,3,01,17,07,21,19,14,30,08,,,,,1.19,0.91,0.76*07$GLGSA,A,3,85,87,75,76,,,,,,,,,1.19,0.91,0.76*1F$GNRMC,045545.000,A,3813.1401,N,08545.1943,W,0.45,303.95,201022,,,A*67$GNVTG,303.95,T,,M,0.45,N,0.82,K,A*24$GNGGA,045546.000,3813.1402,N,08545.1942,W,1,13,0.80,166.9,M,-33.2,M,,*47
$GPGSA,A,3,01,17,07,21,19,14,13,30,08,,,,1.09,0.80,0.73*01
$GLGSA,A,3,85,87,75,76,,,,,,,,,1.09,0.80,0.73*1B
$GNRMC,045546.000,A,3813.1402,N,08545.1942,W,0.51,303.95,201022,,,A*63
$GNVTG,303.95,T,,M,0.51,N,0.94,K,A*26
$GNRMC,045543.000,A,3813.1400,N,08545.1944,W,0.31,303.95,201022,,,A*64$GNVTG,303.95,T,,M,0.31,N,0.57,K,A*2F1944,W,0.31,303.95,201022,,,A*64$GNRMC,045538.000,A,3813.1392,N,08545.1944,W,0.19,303.95,201022,,,A*6E$GNVTG,303.95,T,,M,0.19,N,0.35,K,A*211944,èf$GPGSA,A,3,01,17,07,21,19,14,13,30,08,,,,1.09,0.80,0.73*01$GLGSA,A,3,85,87,75,76,,,,,,,,,1.09,0.80,0.73*1B$GNRMC,045546.000,A,3813.1402,N,08545.1942,W,0.51,303.95,201022,,,A*63$GNVTG,303.95,T,,M,0.51,N,0.94,K,A*26$GNGGA,045547.000,3813.1402,N,08545.1941,W,1,12,0.91,167.0,M,-33.2,M,,*4C
$GPGSA,A,3,01,17,07,21,19,14,30,08,,,,,1.19,0.91,0.76*07
$GLGSA,A,3,85,87,75,76,,,,,,,,,1.19,0.91,0.76*1F
$GPGSV,3,1,12,14,66,334,32,30,65,209,30,17,56,256,26,01,55,089,36*75
$GPGSV,3,2,12,51,40,212,,07,38,168,18,21,37,054,31,19,24,242,24*78
$GPGSV,3,3,12,13,21,283,16,08,11,057,16,15,03,307,,03,02,121,*78
$GLGSV,2,1,07,76,70,085,28,87,53,205,30,77,47,332,,75,18,127,27*66
$GLGSV,2,2,07,85,14,031,20,88,06,209,22,68,02,321,*5B
$GNRMC,045547.000,A,3813.1402,N,08545.1941,W,0.43,303.95,201022,,,A*62
$GNVTG,303.95,T,,M,0.43,N,0.79,K,A*26
$GNRMC,045543.000,A,3813.1400,N,08545.1944,W,0.31,303.95,201022,,,A*64$GNVTG,303.95,T,,M,0.31,N,0.57,K,A*2F1944,W,0.31,303.95,201022,,,A*64$GNRMC,045538.000,A,3813.1392,N,08545.1944,W,0.19,303.95,201022,,,A*6E$GNVTG,303.95,T,,M,0.19,N,0.35,K,A*211944,èf$GPGSA,A,3,01,17,07,21,19,14,30,08,,,,,1.19,0.91,0.76*07$GLGSA,A,3,85,87,75,76,,,,,,,,,1.19,0.91,0.76*1F$GPGSV,3,1,12,14,66,334,32,30,65,209,30,17,56,256,26,01,55,089,36*75$GPGSV,3,2,12,51,40,212,,07,38,168,18,21,37,054,31,19,24,242,24*78$GPGSV,3,3,12,13,21,283,16,08,11,057,16,15,03,307,,03,02,121,*78$GLGSV,2,1,07,76,70,085,28,87,53,205,30,77,47,332,,75,18,127,27*66$GLGSV,2,2,07,85,14,031,20,88,06,209,22,68,02,321,*5B$GNRMC,045547.000,A,3813.1402,N,08545.1941,W,0.43,303.95,201022,,,A*62$GNVTG,303.95,T,,M,0.43,N,0.79,K,A*26$GNGGA,045548.000,3813.1403,N,08545.1941,W,1,12,0.91,167.0,M,-33.2,M,,*42
$GPGSA,A,3,01,17,07,21,19,14,30,08,,,,,1.19,0.91,0.76*07
$GLGSA,A,3,85,87,75,76,,,,,,,,,1.19,0.91,0.76*1F
$GNRMC,045548.000,A,3813.1403,N,08545.1941,W,0.43,303.95,201022,,,A*6C
$GNVTG,303.95,T,,M,0.43,N,0.79,K,A*26
$GNRMC,045543.000,A,3813.1400,N,08545.1944,W,0.31,303.95,201022,,,A*64$GNVTG,303.95,T,,M,0.31,N,0.57,K,A*2F1944,W,0.31,303.95,201022,,,A*64$GNRMC,045538.000,A,3813.1392,N,08545.1944,W,0.19,303.95,201022,,,A*6E$GNVTG,303.95,T,,M,0.19,N,0.35,K,A*211944,èf$GPGSA,A,3,01,17,07,21,19,14,30,08,,,,,1.19,0.91,0.76*07$GLGSA,A,3,85,87,75,76,,,,,,,,,1.19,0.91,0.76*1F$GNGGA,045549.000,3813.1402,N,08545.1942,W,1,13,0.80,166.9,M,-33.2,M,,*48
$GPGSA,A,3,01,17,07,21,19,14,13,30,08,,,,1.09,0.80,0.73*01
$GLGSA,A,3,85,87,75,76,,,,,,,,,1.09,0.80,0.73*1B
$GNRMC,045549.000,A,3813.1402,N,08545.1942,W,0.45,303.95,201022,,,A*69
$GNVTG,303.95,T,,M,0.45,N,0.82,K,A*24
$GNRMC,045548.000,A,3813.1403,N,08545.1941,W,0.43,303.95,201022,,,A*6C$GNVTG,303.95,T,,M,0.43,N,0.79,K,A*261941,W,0.43,303.95,201022,,,A*6C$GNRMC,045543.000,A,3813.1400,N,08545.1944,W,0.31,303.95,201022,,,A*64$GNVTG,303.95,T,,M,0.31,N,0.57,K,A*2F1944,W,0.31,303.95,201022,,,A*64$GNRMC,045538.000,A,3813.1392,N,08545.1944,W,0.19,303.95,201022,,,A*6E$GNVTG,303.95,T,,M,0.19,N,0.35,K,A*211944,èf$GPGSA,A,3,01,17,07,21,19,14,13,30,08,,,,1.09,0.80,0.73*01$GLGSA,A,3,85,87,75,76,,,,,,,,,1.09,0.80,0.73*1B$GNRMC,045549.000,A,3813.1402,N,08545.1942,W,0.45,303.95,201022,,,A*69$GNVTG,303.95,T,,M,0.45,N,0.82,K,A*24$GNGGA,045550.000,3813.1402,N,08545.1943,W,1,12,0.91,166.7,M,-33.2,M,,*4E
$GPGSA,A,3,01,17,07,21,19,14,30,08,,,,,1.19,0.91,0.76*07
$GLGSA,A,3,85,87,75,76,,,,,,,,,1.19,0.91,0.76*1F
$GNRMC,045550.000,A,3813.1402,N,08545.1943,W,0.34,303.95,201022,,,A*66
$GNVTG,303.95,T,,M,0.34,N,0.63,K,A*2D
$GNRMC,045548.000,A,3813.1403,N,08545.1941,W,0.43,303.95,201022,,,A*6C$GNVTG,303.95,T,,M,0.43,N,0.79,K,A*261941,W,0.43,303.95,201022,,,A*6C$GNRMC,045543.000,A,3813.1400,N,08545.1944,W,0.31,303.95,201022,,,A*64$GNVTG,303.95,T,,M,0.31,N,0.57,K,A*2F1944,èf$GPGSA,A,3,01,17,07,21,19,14,30,08,,,,,1.19,0.91,0.76*07$GLGSA,A,3,85,87,75,76,,,,,,,,,1.19,0.91,0.76*1F0.76*07$GNRMC,045550.000,A,3813.1402,N,08545.1943,W,0.34,303.95,201022,,,A*66$GNVTG,303.95,T,,M,0.34,N,0.63,K,A*2D$GNGGA,045551.000,3813.1403,N,08545.1944,W,1,12,0.91,166.5,M,-33.2,M,,*4B
$GPGSA,A,3,01,17,07,21,19,14,30,08,,,,,1.19,0.91,0.76*07
$GLGSA,A,3,85,87,75,76,,,,,,,,,1.19,0.91,0.76*1F
$GNRMC,045551.000,A,3813.1403,N,08545.1944,W,0.54,303.95,201022,,,A*67
$GNVTG,303.95,T,,M,0.54,N,1.01,K,A*2E
$GNRMC,045548.000,A,3813.1403,N,08545.1941,W,0.43,303.95,201022,,,A*6C$GNVTG,303.95,T,,M,0.43,N,0.79,K,A*261941,W,0.43,303.95,201022,,,A*6C$GNRMC,045543.000,A,3813.1400,N,08545.1944,W,0.31,303.95,201022,,,A*64$GNVTG,303.95,T,,M,0.31,N,0.57,K,A*2F1944,èf$GPGSA,A,3,01,17,07,21,19,14,30,08,,,,,1.19,0.91,0.76*07$GLGSA,A,3,85,87,75,76,,,,,,,,,1.19,0.91,0.76*1F$GNRMC,045551.000,A,3813.1403,N,08545.1944,W,0.54,303.95,201022,,,A*67$GNVTG,303.95,T,,M,0.54,N,1.01,K,A*2E$GNGGA,045552.000,3813.1404,N,08545.1945,W,1,12,0.91,166.5,M,-33.2,M,,*4E
$GPGSA,A,3,01,17,07,21,19,14,30,08,,,,,1.19,0.91,0.76*07
$GLGSA,A,3,85,87,75,76,,,,,,,,,1.19,0.91,0.76*1F
$GPGSV,3,1,12,14,66,334,33,30,65,209,30,17,56,256,27,01,55,089,36*75
$GPGSV,3,2,12,07,38,168,18,21,37,054,31,48,29,232,,19,24,242,26*7F
$GPGSV,3,3,12,13,21,283,15,08,11,057,16,15,03,307,,03,02,121,*7B
$GLGSV,2,1,07,76,70,085,29,87,53,205,30,77,47,332,,75,18,127,25*65
$GLGSV,2,2,07,85,14,031,21,88,06,209,23,68,02,321,*5B
$GNRMC,045552.000,A,3813.1404,N,08545.1945,W,0.39,303.95,201022,,,A*69
$GNVTG,303.95,T,,M,0.39,N,0.73,K,A*21
$GNRMC,045548.000,A,3813.1403,N,08545.1941,W,0.43,303.95,201022,,,A*6C$GNVTG,303.95,T,,M,0.43,N,0.79,K,A*261941,W,0.43,303.95,201022,,,A*6C$GNRMC,045543.000,A,3813.1400,N,08545.1944,W,0.31,303.95,201022,,,A*64$GNVTG,303.95,T,,M,0.31,N,0.57,K,A*2F1944,èf$GPGSA,A,3,01,17,07,21,19,14,30,08,,,,,1.19,0.91,0.76*07$GLGSA,A,3,85,87,75,76,,,,,,,,,1.19,0.91,0.76*1F$GPGSV,3,1,12,14,66,334,33,30,65,209,30,17,56,256,27,01,55,089,36*75$GPGSV,3,2,12,07,38,168,18,21,37,054,31,48,29,232,,19,24,242,26*7F$GPGSV,3,3,12,13,21,283,15,08,11,057,16,15,03,307,,03,02,121,*7B$GLGSV,2,1,07,76,70,085,29,87,53,205,30,77,47,332,,75,18,127,25*65$GLGSV,2,2,07,85,14,031,21,88,06,209,23,68,02,321,*5B$GNRMC,045552.000,A,3813.1404,N,08545.1945,W,0.39,303.95,201022,,,A*69$GNVTG,303.95,T,,M,0.39,N,0.73,K,A*21$GNGGA,045553.000,3813.1405,N,08545.1945,W,1,12,0.91,166.5,M,-33.2,M,,*4E
$GPGSA,A,3,01,17,07,21,19,14,30,08,,,,,1.19,0.91,0.76*07
$GLGSA,A,3,85,87,75,76,,,,,,,,,1.19,0.91,0.76*1F
$GNRMC,045553.000,A,3813.1405,N,08545.1945,W,0.41,303.95,201022,,,A*66
$GNVTG,303.95,T,,M,0.41,N,0.77,K,A*2A
$GNRMC,045548.000,A,3813.1403,N,08545.1941,W,0.43,303.95,201022,,,A*6C$GNVTG,303.95,T,,M,0.43,N,0.79,K,A*261941,W,0.43,303.95,201022,,,A*6C$GNRMC,045543.000,A,3813.1400,N,08545.1944,W,0.31,303.95,201022,,,A*64$GNVTG,303.95,T,,M,0.31,N,0.57,K,A*2F1944,èf$GPGSA,A,3,01,17,07,21,19,14,30,08,,,,,1.19,0.91,0.76*07$GLGSA,A,3,85,87,75,76,,,,,,,,,1.19,0.91,0.76*1F$GNGGA,045554.000,3813.1405,N,08545.1944,W,1,13,0.80,166.5,M,-33.2,M,,*49
$GPGSA,A,3,01,17,07,21,19,14,13,30,08,,,,1.09,0.80,0.73*01
$GLGSA,A,3,85,87,75,76,,,,,,,,,1.09,0.80,0.73*1B
$GNRMC,045554.000,A,3813.1405,N,08545.1944,W,0.34,303.95,201022,,,A*62
$GNVTG,303.95,T,,M,0.34,N,0.63,K,A*2D
$GNRMC,045553.000,A,3813.1405,N,08545.1945,W,0.41,303.95,201022,,,A*66$GNVTG,303.95,T,,M,0.41,N,0.77,K,A*2A1945,W,0.41,303.95,201022,,,A*66$GNRMC,045548.000,A,3813.1403,N,08545.1941,W,0.43,303.95,201022,,,A*6C$GNVTG,303.95,T,,M,0.43,N,0.79,K,A*261941,W,0.43,303.95,201022,,,A*6C$GNRMC,045543.000,A,3813.1400,N,08545.1944,W,0.31,303.95,201022,,,A*64$GNVTG,303.95,T,,M,0.31,N,0.57,K,A*2F1944,èf$GPGSA,A,3,01,17,07,21,19,14,13,30,08,,,,1.09,0.80,0.73*01$GLGSA,A,3,85,87,75,76,,,,,,,,,1.09,0.80,0.73*1B$GNRMC,045554.000,A,3813.1405,N,08545.1944,W,0.34,303.95,201022,,,A*62$GNVTG,303.95,T,,M,0.34,N,0.63,K,A*2D$GNGGA,045555.000,3813.1406,N,08545.1944,W,1,12,0.91,166.6,M,-33.2,M,,*49
$GPGSA,A,3,01,17,07,21,19,14,30,08,,,,,1.19,0.91,0.76*07
$GLGSA,A,3,85,87,75,76,,,,,,,,,1.19,0.91,0.76*1F
$GNRMC,045555.000,A,3813.1406,N,08545.1944,W,0.25,303.95,201022,,,A*60
$GNVTG,303.95,T,,M,0.25,N,0.47,K,A*2B
$GNRMC,045553.000,A,3813.1405,N,08545.1945,W,0.41,303.95,201022,,,A*66$GNVTG,303.95,T,,M,0.41,N,0.77,K,A*2A1945,W,0.41,303.95,201022,,,A*66$GNRMC,045548.000,A,3813.1403,N,08545.1941,W,0.43,303.95,201022,,,A*6C$GNVTG,303.95,T,,M,0.43,N,0.79,K,A*261941,èf$GPGSA,A,3,01,17,07,21,19,14,30,08,,,,,1.19,0.91,0.76*07$GLGSA,A,3,85,87,75,76,,,,,,,,,1.19,0.91,0.76*1F$GNRMC,045555.000,A,3813.1406,N,08545.1944,W,0.25,303.95,201022,,,A*60$GNVTG,303.95,T,,M,0.25,N,0.47,K,A*2B$GNGGA,045556.000,3813.1406,N,08545.1943,W,1,12,0.91,166.6,M,-33.2,M,,*4D
$GPGSA,A,3,01,17,07,21,19,14,30,08,,,,,1.19,0.91,0.76*07
$GLGSA,A,3,85,87,75,76,,,,,,,,,1.19,0.91,0.76*1F
$GNRMC,045556.000,A,3813.1406,N,08545.1943,W,0.09,303.95,201022,,,A*6A
$GNVTG,303.95,T,,M,0.09,N,0.17,K,A*20
$GNRMC,045553.000,A,3813.1405,N,08545.1945,W,0.41,303.95,201022,,,A*66$GNVTG,303.95,T,,M,0.41,N,0.77,K,A*2A1945,W,0.41,303.95,201022,,,A*66$GNRMC,045548.000,A,3813.1403,N,08545.1941,W,0.43,303.95,201022,,,A*6C$GNVTG,303.95,T,,M,0.43,N,0.79,K,A*261941,èf$GPGSA,A,3,01,17,07,21,19,14,30,08,,,,,1.19,0.91,0.76*07$GLGSA,A,3,85,87,75,76,,,,,,,,,1.19,0.91,0.76*1F$GNRMC,045556.000,A,3813.1406,N,08545.1943,W,0.09,303.95,201022,,,A*6A$GNVTG,303.95,T,,M,0.09,N,0.17,K,A*201943,W,0.09,303.95,201022,,,A*6A$GNGGA,045557.000,3813.1406,N,08545.1944,W,1,12,0.91,166.6,M,-33.2,M,,*4B
$GPGSA,A,3,01,17,07,21,19,14,30,08,,,,,1.19,0.91,0.76*07
$GLGSA,A,3,85,87,75,76,,,,,,,,,1.19,0.91,0.76*1F
$GPGSV,3,1,12,14,66,334,33,30,65,209,29,17,56,256,30,01,55,089,36*7B
$GPGSV,3,2,12,07,38,168,17,21,37,054,31,48,29,232,,19,24,242,27*71
$GPGSV,3,3,12,13,21,283,15,08,11,057,16,15,03,307,,03,02,121,*7B
$GLGSV,2,1,07,76,70,085,27,87,53,205,30,77,47,332,,75,18,127,24*6A
$GLGSV,2,2,07,85,14,031,22,88,06,209,23,68,02,321,*58
$GNRMC,045557.000,A,3813.1406,N,08545.1944,W,0.20,303.95,201022,,,A*67
$GNVTG,303.95,T,,M,0.20,N,0.37,K,A*29
$GNRMC,045553.000,A,3813.1405,N,08545.1945,W,0.41,303.95,201022,,,A*66$GNVTG,303.95,T,,M,0.41,N,0.77,K,A*2A1945,W,0.41,303.95,201022,,,A*66$GNRMC,045548.000,A,3813.1403,N,08545.1941,W,0.43,303.95,201022,,,A*6C$GNVTG,303.95,T,,M,0.43,N,0.79,K,A*261941,èf$GPGSA,A,3,01,17,07,21,19,14,30,08,,,,,1.19,0.91,0.76*07$GLGSA,A,3,85,87,75,76,,,,,,,,,1.19,0.91,0.76*1F$GPGSV,3,1,12,14,66,334,33,30,65,209,29,17,56,256,30,01,55,089,36*7B$GPGSV,3,2,12,07,38,168,17,21,37,054,31,48,29,232,,19,24,242,27*71$GPGSV,3,3,12,13,21,283,15,08,11,057,16,15,03,307,,03,02,121,*7B$GLGSV,2,1,07,76,70,085,27,87,53,205,30,77,47,332,,75,18,127,24*6A$GLGSV,2,2,07,85,14,031,22,88,06,209,23,68,02,321,*58$GNRMC,045557.000,A,3813.1406,N,08545.1944,W,0.20,303.95,201022,,,A*67$GNVTG,303.95,T,,M,0.20,N,0.37,K,A*29$GNGGA,045558.000,3813.1407,N,08545.1944,W,1,12,0.91,166.6,M,-33.2,M,,*45
$GPGSA,A,3,01,17,07,21,19,14,30,08,,,,,1.19,0.91,0.76*07
$GLGSA,A,3,85,87,75,76,,,,,,,,,1.19,0.91,0.76*1F
$GNRMC,045558.000,A,3813.1407,N,08545.1944,W,0.18,303.95,201022,,,A*62
$GNVTG,303.95,T,,M,0.18,N,0.33,K,A*26
$GNRMC,045553.000,A,3813.1405,N,08545.1945,W,0.41,303.95,201022,,,A*66$GNVTG,303.95,T,,M,0.41,N,0.77,K,A*2A1945,W,0.41,303.95,201022,,,A*66$GNRMC,045548.000,A,3813.1403,N,08545.1941,W,0.43,303.95,201022,,,A*6C$GNVTG,303.95,T,,M,0.43,N,0.79,K,A*261941,èf$GPGSA,A,3,01,17,07,21,19,14,30,08,,,,,1.19,0.91,0.76*07$GLGSA,A,3,85,87,75,76,,,,,,,,,1.19,0.91,0.76*1F$GNGGA,045559.000,3813.1406,N,08545.1945,W,1,11,0.99,166.6,M,-33.2,M,,*4F
$GPGSA,A,3,01,17,21,19,14,30,08,,,,,,1.25,0.99,0.76*07
$GLGSA,A,3,85,87,75,76,,,,,,,,,1.25,0.99,0.76*18
$GNRMC,045559.000,A,3813.1406,N,08545.1945,W,0.38,303.95,201022,,,A*61
$GNVTG,303.95,T,,M,0.38,N,0.71,K,A*22
$GNRMC,045558.000,A,3813.1407,N,08545.1944,W,0.18,303.95,201022,,,A*62$GNVTG,303.95,T,,M,0.18,N,0.33,K,A*261944,W,0.18,303.95,201022,,,A*62$GNRMC,045553.000,A,3813.1405,N,08545.1945,W,0.41,303.95,201022,,,A*66$GNVTG,303.95,T,,M,0.41,N,0.77,K,A*2A1945,W,0.41,303.95,201022,,,A*66$GNRMC,045548.000,A,3813.1403,N,08545.1941,W,0.43,303.95,201022,,,A*6C$GNVTG,303.95,T,,M,0.43,N,0.79,K,A*261941,èf$GPGSA,A,3,01,17,21,19,14,30,08,,,,,,1.25,0.99,0.76*07$GLGSA,A,3,85,87,75,76,,,,,,,,,1.25,0.99,0.76*18$GNRMC,045559.000,A,3813.1406,N,08545.1945,W,0.38,303.95,201022,,,A*61$GNVTG,303.95,T,,M,0.38,N,0.71,K,A*22$GNGGA,045600.000,3813.1409,N,08545.1947,W,1,11,0.99,166.6,M,-33.2,M,,*4D
$GPGSA,A,3,01,17,21,19,14,30,08,,,,,,1.25,0.99,0.76*07
$GLGSA,A,3,85,87,75,76,,,,,,,,,1.25,0.99,0.76*18
$GNRMC,045600.000,A,3813.1409,N,08545.1947,W,0.53,303.95,201022,,,A*6E
$GNVTG,303.95,T,,M,0.53,N,0.99,K,A*29
$GNRMC,045558.000,A,3813.1407,N,08545.1944,W,0.18,303.95,201022,,,A*62$GNVTG,303.95,T,,M,0.18,N,0.33,K,A*261944,W,0.18,303.95,201022,,,A*62$GNRMC,045553.000,A,3813.1405,N,08545.1945,W,0.41,303.95,201022,,,A*66$GNVTG,303.95,T,,M,0.41,N,0.77,K,A*2A1945,èf$GPGSA,A,3,01,17,21,19,14,30,08,,,,,,1.25,0.99,0.76*07$GLGSA,A,3,85,87,75,76,,,,,,,,,1.25,0.99,0.76*18$GNRMC,045600.000,A,3813.1409,N,08545.1947,W,0.53,303.95,201022,,,A*6E$GNVTG,303.95,T,,M,0.53,N,0.99,K,A*29$GNGGA,045601.000,3813.1407,N,08545.1947,W,1,11,0.99,166.6,M,-33.2,M,,*42
$GPGSA,A,3,01,17,21,19,14,30,08,,,,,,1.25,0.99,0.76*07
$GLGSA,A,3,85,87,75,76,,,,,,,,,1.25,0.99,0.76*18
$GNRMC,045601.000,A,3813.1407,N,08545.1947,W,0.06,303.95,201022,,,A*61
$GNVTG,303.95,T,,M,0.06,N,0.11,K,A*29
$GNRMC,045558.000,A,3813.1407,N,08545.1944,W,0.18,303.95,201022,,,A*62$GNVTG,303.95,T,,M,0.18,N,0.33,K,A*261944,W,0.18,303.95,201022,,,A*62$GNRMC,045553.000,A,3813.1405,N,08545.1945,W,0.41,303.95,201022,,,A*66$GNVTG,303.95,T,,M,0.41,N,0.77,K,A*2A1945,èf$GPGSA,A,3,01,17,21,19,14,30,08,,,,,,1.25,0.99,0.76*07$GLGSA,A,3,85,87,75,76,,,,,,,,,1.25,0.99,0.76*18$GNRMC,045601.000,A,3813.1407,N,08545.1947,W,0.06,303.95,201022,,,A*61$GNVTG,303.95,T,,M,0.06,N,0.11,K,A*29$GNGGA,045602.000,3813.1409,N,08545.1948,W,1,12,0.91,166.6,M,-33.2,M,,*4B
$GPGSA,A,3,01,17,07,21,19,14,30,08,,,,,1.19,0.91,0.76*07
$GLGSA,A,3,85,87,75,76,,,,,,,,,1.19,0.91,0.76*1F
$GPGSV,3,1,12,14,66,334,33,30,65,209,29,17,56,256,31,01,55,089,37*7B
$GPGSV,3,2,12,07,38,168,17,21,37,054,31,46,27,236,,19,24,242,28*7A
$GPGSV,3,3,12,13,21,283,13,08,11,057,16,15,03,307,,03,02,121,*7D
$GLGSV,2,1,07,76,70,085,25,87,53,205,28,77,47,332,,75,18,127,24*61
$GLGSV,2,2,07,85,14,031,23,88,06,209,23,68,02,321,*59
$GNRMC,045602.000,A,3813.1409,N,08545.1948,W,0.29,303.95,201022,,,A*6E
$GNVTG,303.95,T,,M,0.29,N,0.54,K,A*25
$GNRMC,045558.000,A,3813.1407,N,08545.1944,W,0.18,303.95,201022,,,A*62$GNVTG,303.95,T,,M,0.18,N,0.33,K,A*261944,W,0.18,303.95,201022,,,A*62$GNRMC,045553.000,A,3813.1405,N,08545.1945,W,0.41,303.95,201022,,,A*66$GNVTG,303.95,T,,M,0.41,N,0.77,K,A*2A1945,èf$GPGSA,A,3,01,17,07,21,19,14,30,08,,,,,1.19,0.91,0.76*07$GLGSA,A,3,85,87,75,76,,,,,,,,,1.19,0.91,0.76*1F$GPGSV,3,1,12,14,66,334,33,30,65,209,29,17,56,256,31,01,55,089,37*7B$GPGSV,3,2,12,07,38,168,17,21,37,054,31,46,27,236,,19,24,242,28*7AB$GPGSV,3,3,12,13,21,283,13,08,11,057,16,15,03,307,,03,02,121,*7D$GLGSV,2,1,07,76,70,085,25,87,53,205,28,77,47,332,,75,18,127,24*61$GLGSV,2,2,07,85,14,031,23,88,06,209,23,68,02,321,*59$GNRMC,045602.000,A,3813.1409,N,08545.1948,W,0.29,303.95,201022,,,A*6E$GNVTG,303.95,T,,M,0.29,N,0.54,K,A*25$GNGGA,045603.000,3813.1409,N,08545.1947,W,1,12,0.91,166.5,M,-33.2,M,,*46
$GPGSA,A,3,01,17,07,21,19,14,30,08,,,,,1.19,0.91,0.76*07
$GLGSA,A,3,85,87,75,76,,,,,,,,,1.19,0.91,0.76*1F
$GNRMC,045603.000,A,3813.1409,N,08545.1947,W,0.63,121.13,201022,,,A*62
$GNVTG,121.13,T,,M,0.63,N,1.16,K,A*20
$GNRMC,045558.000,A,3813.1407,N,08545.1944,W,0.18,303.95,201022,,,A*62$GNVTG,303.95,T,,M,0.18,N,0.33,K,A*261944,W,0.18,303.95,201022,,,A*62$GNRMC,045553.000,A,3813.1405,N,08545.1945,W,0.41,303.95,201022,,,A*66$GNVTG,303.95,T,,M,0.41,N,0.77,K,A*2A1945,èf$GPGSA,A,3,01,17,07,21,19,14,30,08,,,,,1.19,0.91,0.76*07$GLGSA,A,3,85,87,75,76,,,,,,,,,1.19,0.91,0.76*1F$GNGGA,045604.000,3813.1409,N,08545.1946,W,1,12,0.91,166.8,M,-33.2,M,,*4D
$GPGSA,A,3,01,17,07,21,19,14,30,08,,,,,1.19,0.91,0.76*07
$GLGSA,A,3,85,87,75,76,,,,,,,,,1.19,0.91,0.76*1F
$GNRMC,045604.000,A,3813.1409,N,08545.1946,W,0.35,121.13,201022,,,A*67
$GNVTG,121.13,T,,M,0.35,N,0.64,K,A*27
$GNRMC,045603.000,A,3813.1409,N,08545.1947,W,0.63,121.13,201022,,,A*62$GNVTG,121.13,T,,M,0.63,N,1.16,K,A*201947,W,0.63,121.13,201022,,,A*62$GNRMC,045558.000,A,3813.1407,N,08545.1944,W,0.18,303.95,201022,,,A*62$GNVTG,303.95,T,,M,0.18,N,0.33,K,A*261944,W,0.18,303.95,201022,,,A*62$GNRMC,045553.000,A,3813.1405,N,08545.1945,W,0.41,303.95,201022,,,A*66$GNVTG,303.95,T,,M,0.41,N,0.77,K,A*2A1945,èf$GPGSA,A,3,01,17,07,21,19,14,30,08,,,,,1.19,0.91,0.76*07$GLGSA,A,3,85,87,75,76,,,,,,,,,1.19,0.91,0.76*1F$GNRMC,045604.000,A,3813.1409,N,08545.1946,W,0.35,121.13,201022,,,A*67$GNVTG,121.13,T,,M,0.35,N,0.64,K,A*27$GNGGA,045605.000,3813.1409,N,08545.1945,W,1,11,0.99,166.8,M,-33.2,M,,*44
$GPGSA,A,3,01,17,21,19,14,30,08,,,,,,1.25,0.99,0.76*07
$GLGSA,A,3,85,87,75,76,,,,,,,,,1.25,0.99,0.76*18
$GNRMC,045605.000,A,3813.1409,N,08545.1945,W,0.25,121.13,201022,,,A*64
$GNVTG,121.13,T,,M,0.25,N,0.47,K,A*27
$GNRMC,045603.000,A,3813.1409,N,08545.1947,W,0.63,121.13,201022,,,A*62$GNVTG,121.13,T,,M,0.63,N,1.16,K,A*201947,W,0.63,121.13,201022,,,A*62$GNRMC,045558.000,A,3813.1407,N,08545.1944,W,0.18,303.95,201022,,,A*62$GNVTG,303.95,T,,M,0.18,N,0.33,K,A*261944,èf$GPGSA,A,3,01,17,21,19,14,30,08,,,,,,1.25,0.99,0.76*07$GLGSA,A,3,85,87,75,76,,,,,,,,,1.25,0.99,0.76*18$GNRMC,045605.000,A,3813.1409,N,08545.1945,W,0.25,121.13,201022,,,A*64$GNVTG,121.13,T,,M,0.25,N,0.47,K,A*27$GNGGA,045606.000,3813.1410,N,08545.1945,W,1,12,0.91,166.7,M,-33.2,M,,*4B
$GPGSA,A,3,01,17,07,21,19,14,30,08,,,,,1.19,0.91,0.76*07
$GLGSA,A,3,85,87,75,76,,,,,,,,,1.19,0.91,0.76*1F
$GNRMC,045606.000,A,3813.1410,N,08545.1945,W,0.19,121.13,201022,,,A*60
$GNVTG,121.13,T,,M,0.19,N,0.35,K,A*2D
$GNRMC,045603.000,A,3813.1409,N,08545.1947,W,0.63,121.13,201022,,,A*62$GNVTG,121.13,T,,M,0.63,N,1.16,K,A*201947,W,0.63,121.13,201022,,,A*62$GNRMC,045558.000,A,3813.1407,N,08545.1944,W,0.18,303.95,201022,,,A*62$GNVTG,303.95,T,,M,0.18,N,0.33,K,A*261944,èf$GPGSA,A,3,01,17,07,21,19,14,30,08,,,,,1.19,0.91,0.76*07$GLGSA,A,3,85,87,75,76,,,,,,,,,1.19,0.91,0.76*1F$GNRMC,045606.000,A,3813.1410,N,08545.1945,W,0.19,121.13,201022,,,A*60$GNVTG,121.13,T,,M,0.19,N,0.35,K,A*2D$GNGGA,045607.000,3813.1409,N,08545.1944,W,1,11,0.99,166.9,M,-33.2,M,,*46
$GPGSA,A,3,01,17,21,19,14,30,08,,,,,,1.25,0.99,0.76*07
$GLGSA,A,3,85,87,75,76,,,,,,,,,1.25,0.99,0.76*18
$GPGSV,3,1,12,14,66,334,33,30,65,209,30,17,56,256,32,01,55,089,37*70
$GPGSV,3,2,12,07,38,168,15,21,37,054,31,46,27,236,,19,24,242,29*79
$GPGSV,3,3,12,13,21,283,,08,11,057,17,15,03,307,,03,02,121,*7E
$GLGSV,2,1,07,76,70,085,23,87,53,205,25,77,47,332,,75,18,127,22*6C
$GLGSV,2,2,07,85,14,031,24,88,06,209,24,68,02,321,*59
$GNRMC,045607.000,A,3813.1409,N,08545.1944,W,0.22,121.13,201022,,,A*60
$GNVTG,121.13,T,,M,0.22,N,0.42,K,A*25
$GNRMC,045603.000,A,3813.1409,N,08545.1947,W,0.63,121.13,201022,,,A*62$GNVTG,121.13,T,,M,0.63,N,1.16,K,A*201947,W,0.63,121.13,201022,,,A*62$GNRMC,045558.000,A,3813.1407,N,08545.1944,W,0.18,303.95,201022,,,A*62$GNVTG,303.95,T,,M,0.18,N,0.33,K,A*261944,èf$GPGSA,A,3,01,17,21,19,14,30,08,,,,,,1.25,0.99,0.76*07$GLGSA,A,3,85,87,75,76,,,,,,,,,1.25,0.99,0.76*18$GPGSV,3,1,12,14,66,334,33,30,65,209,30,17,56,256,32,01,55,089,37*70$GPGSV,3,2,12,07,38,168,15,21,37,054,31,46,27,236,,19,24,242,29*79$GPGSV,3,3,12,13,21,283,,08,11,057,17,15,03,307,,03,02,121,*7E$GLGSV,2,1,07,76,70,085,23,87,53,205,25,77,47,332,,75,18,127,22*6C$GLGSV,2,2,07,85,14,031,24,88,06,209,24,68,02,321,*59$GNRMC,045607.000,A,3813.1409,N,08545.1944,W,0.22,121.13,201022,,,A*60$GNVTG,121.13,T,,M,0.22,N,0.42,K,A*25$GNGGA,045608.000,3813.1410,N,08545.1945,W,1,11,0.99,166.8,M,-33.2,M,,*41
$GPGSA,A,3,01,17,21,19,14,30,08,,,,,,1.25,0.99,0.76*07
$GLGSA,A,3,85,87,75,76,,,,,,,,,1.25,0.99,0.76*18
$GNRMC,045608.000,A,3813.1410,N,08545.1945,W,0.42,121.13,201022,,,A*60
$GNVTG,121.13,T,,M,0.42,N,0.78,K,A*2A
$GNRMC,045603.000,A,3813.1409,N,08545.1947,W,0.63,121.13,201022,,,A*62$GNVTG,121.13,T,,M,0.63,N,1.16,K,A*201947,W,0.63,121.13,201022,,,A*62$GNRMC,045558.000,A,3813.1407,N,08545.1944,W,0.18,303.95,201022,,,A*62$GNVTG,303.95,T,,M,0.18,N,0.33,K,A*261944,èf$GPGSA,A,3,01,17,21,19,14,30,08,,,,,,1.25,0.99,0.76*07$GLGSA,A,3,85,87,75,76,,,,,,,,,1.25,0.99,0.76*18$GNGGA,045609.000,3813.1409,N,08545.1945,W,1,11,0.99,166.8,M,-33.2,M,,*48
$GPGSA,A,3,01,17,21,19,14,30,08,,,,,,1.25,0.99,0.76*07
$GLGSA,A,3,85,87,75,76,,,,,,,,,1.25,0.99,0.76*18
$GNRMC,045609.000,A,3813.1409,N,08545.1945,W,0.29,121.13,201022,,,A*64
$GNVTG,121.13,T,,M,0.29,N,0.54,K,A*29
$GNRMC,045608.000,A,3813.1410,N,08545.1945,W,0.42,121.13,201022,,,A*60$GNVTG,121.13,T,,M,0.42,N,0.78,K,A*2A1945,W,0.42,121.13,201022,,,A*60$GNRMC,045603.000,A,3813.1409,N,08545.1947,W,0.63,121.13,201022,,,A*62$GNVTG,121.13,T,,M,0.63,N,1.16,K,A*201947,W,0.63,121.13,201022,,,A*62$GNRMC,045558.000,A,3813.1407,N,08545.1944,W,0.18,303.95,201022,,,A*62$GNVTG,303.95,T,,M,0.18,N,0.33,K,A*261944,èf$GPGSA,A,3,01,17,21,19,14,30,08,,,,,,1.25,0.99,0.76*07$GLGSA,A,3,85,87,75,76,,,,,,,,,1.25,0.99,0.76*18$GNRMC,045609.000,A,3813.1409,N,08545.1945,W,0.29,121.13,201022,,,A*64$GNVTG,121.13,T,,M,0.29,N,0.54,K,A*29$GNGGA,045610.000,3813.1409,N,08545.1945,W,1,12,0.91,166.8,M,-33.2,M,,*4B
$GPGSA,A,3,01,17,07,21,19,14,30,08,,,,,1.19,0.91,0.76*07
$GLGSA,A,3,85,87,75,76,,,,,,,,,1.19,0.91,0.76*1F
$GNRMC,045610.000,A,3813.1409,N,08545.1945,W,0.53,121.13,201022,,,A*61
$GNVTG,121.13,T,,M,0.53,N,0.98,K,A*24
$GNRMC,045608.000,A,3813.1410,N,08545.1945,W,0.42,121.13,201022,,,A*60$GNVTG,121.13,T,,M,0.42,N,0.78,K,A*2A1945,W,0.42,121.13,201022,,,A*60$GNRMC,045603.000,A,3813.1409,N,08545.1947,W,0.63,121.13,201022,,,A*62$GNVTG,121.13,T,,M,0.63,N,1.16,K,A*201947,èf$GPGSA,A,3,01,17,07,21,19,14,30,08,,,,,1.19,0.91,0.76*07$GLGSA,A,3,85,87,75,76,,,,,,,,,1.19,0.91,0.76*1F$GNRMC,045610.000,A,3813.1409,N,08545.1945,W,0.53,121.13,201022,,,A*61$GNVTG,121.13,T,,M,0.53,N,0.98,K,A*24$GNGGA,045611.000,3813.1408,N,08545.1945,W,1,12,0.91,166.8,M,-33.2,M,,*4B
$GPGSA,A,3,01,17,07,21,19,14,30,08,,,,,1.19,0.91,0.76*07
$GLGSA,A,3,85,87,75,76,,,,,,,,,1.19,0.91,0.76*1F
$GNRMC,045611.000,A,3813.1408,N,08545.1945,W,0.26,121.13,201022,,,A*63
$GNVTG,121.13,T,,M,0.26,N,0.49,K,A*2A
$GNRMC,045608.000,A,3813.1410,N,08545.1945,W,0.42,121.13,201022,,,A*60$GNVTG,121.13,T,,M,0.42,N,0.78,K,A*2A1945,W,0.42,121.13,201022,,,A*60$GNRMC,045603.000,A,3813.1409,N,08545.1947,W,0.63,121.13,201022,,,A*62$GNVTG,121.13,T,,M,0.63,N,1.16,K,A*201947,èf$GPGSA,A,3,01,17,07,21,19,14,30,08,,,,,1.19,0.91,0.76*07$GLGSA,A,3,85,87,75,76,,,,,,,,,1.19,0.91,0.76*1F$GNRMC,045611.000,A,3813.1408,N,08545.1945,W,0.26,121.13,201022,,,A*63$GNVTG,121.13,T,,M,0.26,N,0.49,K,A*2A$GNGGA,045612.000,3813.1407,N,08545.1946,W,1,12,0.91,166.9,M,-33.2,M,,*45
$GPGSA,A,3,01,17,07,21,19,14,30,08,,,,,1.19,0.91,0.76*07
$GLGSA,A,3,85,87,75,76,,,,,,,,,1.19,0.91,0.76*1F
$GPGSV,3,1,12,14,66,334,34,30,65,209,30,17,56,256,33,01,55,089,37*76
$GPGSV,3,2,12,07,38,168,17,21,37,054,31,46,27,236,,19,24,242,30*73
$GPGSV,3,3,12,13,21,283,,08,11,057,16,15,03,307,,03,02,121,*7F
$GLGSV,2,1,07,76,70,085,22,87,53,205,20,77,47,332,,75,18,127,20*6A
$GLGSV,2,2,07,85,14,031,25,88,06,209,24,68,02,321,*58
$GNRMC,045612.000,A,3813.1407,N,08545.1946,W,0.31,121.13,201022,,,A*6A
$GNVTG,121.13,T,,M,0.31,N,0.57,K,A*23
$GNRMC,045608.000,A,3813.1410,N,08545.1945,W,0.42,121.13,201022,,,A*60$GNVTG,121.13,T,,M,0.42,N,0.78,K,A*2A1945,W,0.42,121.13,201022,,,A*60$GNRMC,045603.000,A,3813.1409,N,08545.1947,W,0.63,121.13,201022,,,A*62$GNVTG,121.13,T,,M,0.63,N,1.16,K,A*201947,èf$GPGSA,A,3,01,17,07,21,19,14,30,08,,,,,1.19,0.91,0.76*07$GLGSA,A,3,85,87,75,76,,,,,,,,,1.19,0.91,0.76*1F$GPGSV,3,1,12,14,66,334,34,30,65,209,30,17,56,256,33,01,55,089,37*76$GPGSV,3,2,12,07,38,168,17,21,37,054,31,46,27,236,,19,24,242,30*73$GPGSV,3,3,12,13,21,283,,08,11,057,16,15,03,307,,03,02,121,*7F$GLGSV,2,1,07,76,70,085,22,87,53,205,20,77,47,332,,75,18,127,20*6A$GLGSV,2,2,07,85,14,031,25,88,06,209,24,68,02,321,*58$GNRMC,045612.000,A,3813.1407,N,08545.1946,W,0.31,121.13,201022,,,A*6A$GNVTG,121.13,T,,M,0.31,N,0.57,K,A*23$GNGGA,045613.000,3813.1407,N,08545.1946,W,1,11,0.99,167.1,M,-33.2,M,,*46
$GPGSA,A,3,01,17,21,19,14,30,08,,,,,,1.25,0.99,0.76*07
$GLGSA,A,3,85,87,75,76,,,,,,,,,1.25,0.99,0.76*18
$GNRMC,045613.000,A,3813.1407,N,08545.1946,W,0.40,121.13,201022,,,A*6D
$GNVTG,121.13,T,,M,0.40,N,0.73,K,A*23
$GNRMC,045608.000,A,3813.1410,N,08545.1945,W,0.42,121.13,201022,,,A*60$GNVTG,121.13,T,,M,0.42,N,0.78,K,A*2A1945,W,0.42,121.13,201022,,,A*60$GNRMC,045603.000,A,3813.1409,N,08545.1947,W,0.63,121.13,201022,,,A*62$GNVTG,121.13,T,,M,0.63,N,1.16,K,A*201947,èf$GPGSA,A,3,01,17,21,19,14,30,08,,,,,,1.25,0.99,0.76*07$GLGSA,A,3,85,87,75,76,,,,,,,,,1.25,0.99,0.76*18$GNGGA,045614.000,3813.1407,N,08545.1947,W,1,12,0.91,167.3,M,-33.2,M,,*49
$GPGSA,A,3,01,17,07,21,19,14,30,08,,,,,1.19,0.91,0.76*07
$GLGSA,A,3,85,87,75,76,,,,,,,,,1.19,0.91,0.76*1F
$GNRMC,045614.000,A,3813.1407,N,08545.1947,W,0.50,121.13,201022,,,A*6A
$GNVTG,121.13,T,,M,0.50,N,0.92,K,A*2D
$GNRMC,045613.000,A,3813.1407,N,08545.1946,W,0.40,121.13,201022,,,A*6D$GNVTG,121.13,T,,M,0.40,N,0.73,K,A*231946,W,0.40,121.13,201022,,,A*6D$GNRMC,045608.000,A,3813.1410,N,08545.1945,W,0.42,121.13,201022,,,A*60$GNVTG,121.13,T,,M,0.42,N,0.78,K,A*2A1945,W,0.42,121.13,201022,,,A*60$GNRMC,045603.000,A,3813.1409,N,08545.1947,W,0.63,121.13,201022,,,A*62$GNVTG,121.13,T,,M,0.63,N,1.16,K,A*201947,èf$GPGSA,A,3,01,17,07,21,19,14,30,08,,,,,1.19,0.91,0.76*07201022,,,A*60$GNVTG,121.13,T,,M,0.42,N,0.78,K,A*2A1945,W,0.42,121.13,201022,,,A*60$GNRMC,045603.000,A,3813.1409,N,08545.1947,W,0.63,121.13,201022,,,A*62$GNVTG,121.13,T,,M,0.63,N,1.16,K,A*201947,èf$GLGSA,A,3,85,87,75,76,,,,,,,,,1.19,0.91,0.76*1F$GNRMC,045614.000,A,3813.1407,N,08545.1947,W,0.50,121.13,201022,,,A*6A$GNVTG,121.13,T,,M,0.50,N,0.92,K,A*2D$GNGGA,045615.000,3813.1408,N,08545.1948,W,1,12,0.91,167.2,M,-33.2,M,,*49
$GPGSA,A,3,01,17,07,21,19,14,30,08,,,,,1.19,0.91,0.76*07
$GLGSA,A,3,85,87,75,76,,,,,,,,,1.19,0.91,0.76*1F
$GNRMC,045615.000,A,3813.1408,N,08545.1948,W,0.81,346.85,201022,,,A*6B
$GNVTG,346.85,T,,M,0.81,N,1.50,K,A*22
$GNRMC,045613.000,A,3813.1407,N,08545.1946,W,0.40,121.13,201022,,,A*6D$GNVTG,121.13,T,,M,0.40,N,0.73,K,A*231946,W,0.40,121.13,201022,,,A*6D$GNRMC,045608.000,A,3813.1410,N,08545.1945,W,0.42,121.13,201022,,,A*60$GNVTG,121.13,T,,M,0.42,N,0.78,K,A*2A1945,èf$GPGSA,A,3,01,17,07,21,19,14,30,08,,,,,1.19,0.91,0.76*07$GLGSA,A,3,85,87,75,76,,,,,,,,,1.19,0.91,0.76*1F$GNRMC,045615.000,A,3813.1408,N,08545.1948,W,0.81,346.85,201022,,,A*6B$GNVTG,346.85,T,,M,0.81,N,1.50,K,A*22$GNGGA,045616.000,3813.1409,N,08545.1948,W,1,13,0.80,167.0,M,-33.2,M,,*48
$GPGSA,A,3,01,17,07,21,19,14,13,30,08,,,,1.08,0.80,0.73*00
$GLGSA,A,3,85,87,75,76,,,,,,,,,1.08,0.80,0.73*1A
$GNRMC,045616.000,A,3813.1409,N,08545.1948,W,0.36,346.85,201022,,,A*65
$GNVTG,346.85,T,,M,0.36,N,0.66,K,A*2A
$GNRMC,045613.000,A,3813.1407,N,08545.1946,W,0.40,121.13,201022,,,A*6D$GNVTG,121.13,T,,M,0.40,N,0.73,K,A*231946,W,0.40,121.13,201022,,,A*6D$GNRMC,045608.000,A,3813.1410,N,08545.1945,W,0.42,121.13,201022,,,A*60$GNVTG,121.13,T,,M,0.42,N,0.78,K,A*2A1945,èf$GPGSA,A,3,01,17,07,21,19,14,13,30,08,,,,1.08,0.80,0.73*00$GLGSA,A,3,85,87,75,76,,,,,,,,,1.08,0.80,0.73*1A$GNRMC,045616.000,A,3813.1409,N,08545.1948,W,0.36,346.85,201022,,,A*65$GNVTG,346.85,T,,M,0.36,N,0.66,K,A*2A$GNGGA,045617.000,3813.1408,N,08545.1948,W,1,13,0.80,167.0,M,-33.2,M,,*48
$GPGSA,A,3,01,17,07,21,19,14,13,30,08,,,,1.08,0.80,0.73*00
$GLGSA,A,3,85,87,75,76,,,,,,,,,1.08,0.80,0.73*1A
$GPGSV,3,1,12,14,66,334,35,30,65,209,30,17,56,256,34,01,55,089,37*70
$GPGSV,3,2,12,07,38,168,20,21,37,054,30,46,27,236,,19,24,242,30*76
$GPGSV,3,3,12,13,21,283,17,08,11,057,17,15,03,307,,03,02,121,*78
$GLGSV,2,1,07,76,70,085,21,87,53,205,17,77,47,332,,75,18,127,20*6D
$GLGSV,2,2,07,85,14,031,26,88,06,209,24,68,02,321,*5B
$GNRMC,045617.000,A,3813.1408,N,08545.1948,W,0.10,346.85,201022,,,A*61
$GNVTG,346.85,T,,M,0.10,N,0.18,K,A*27
$GNRMC,045613.000,A,3813.1407,N,08545.1946,W,0.40,121.13,201022,,,A*6D$GNVTG,121.13,T,,M,0.40,N,0.73,K,A*231946,W,0.40,121.13,201022,,,A*6D$GNRMC,045608.000,A,3813.1410,N,08545.1945,W,0.42,121.13,201022,,,A*60$GNVTG,121.13,T,,M,0.42,N,0.78,K,A*2A1945,èf$GPGSA,A,3,01,17,07,21,19,14,13,30,08,,,,1.08,0.80,0.73*00$GLGSA,A,3,85,87,75,76,,,,,,,,,1.08,0.80,0.73*1A$GPGSV,3,1,12,14,66,334,35,30,65,209,30,17,56,256,34,01,55,089,37*70$GPGSV,3,2,12,07,38,168,20,21,37,054,30,46,27,236,,19,24,242,30*76$GPGSV,3,3,12,13,21,283,17,08,11,057,17,15,03,307,,03,02,121,*78$GLGSV,2,1,07,76,70,085,21,87,53,205,17,77,47,332,,75,18,127,20*6D$GLGSV,2,2,07,85,14,031,26,88,06,209,24,68,02,321,*5B$GNRMC,045617.000,A,3813.1408,N,08545.1948,W,0.10,346.85,201022,,,A*61$GNVTG,346.85,T,,M,0.10,N,0.18,K,A*27$GNGGA,045618.000,3813.1407,N,08545.1946,W,1,13,0.80,167.0,M,-33.2,M,,*46
$GPGSA,A,3,01,17,07,21,19,14,13,30,08,,,,1.08,0.80,0.73*00
$GLGSA,A,3,85,87,75,76,,,,,,,,,1.08,0.80,0.73*1A
$GNRMC,045618.000,A,3813.1407,N,08545.1946,W,0.37,346.85,201022,,,A*6A
$GNVTG,346.85,T,,M,0.37,N,0.68,K,A*25
$GNRMC,045613.000,A,3813.1407,N,08545.1946,W,0.40,121.13,201022,,,A*6D$GNVTG,121.13,T,,M,0.40,N,0.73,K,A*231946,W,0.40,121.13,201022,,,A*6D$GNRMC,045608.000,A,3813.1410,N,08545.1945,W,0.42,121.13,201022,,,A*60$GNVTG,121.13,T,,M,0.42,N,0.78,K,A*2A1945,èf$GPGSA,A,3,01,17,07,21,19,14,13,30,08,,,,1.08,0.80,0.73*00$GLGSA,A,3,85,87,75,76,,,,,,,,,1.08,0.80,0.73*1A$GNGGA,045619.000,3813.1406,N,08545.1944,W,1,13,0.80,166.8,M,-33.2,M,,*4D
$GPGSA,A,3,01,17,07,21,19,14,13,30,08,,,,1.08,0.80,0.73*00
$GLGSA,A,3,85,87,75,76,,,,,,,,,1.08,0.80,0.73*1A
$GNRMC,045619.000,A,3813.1406,N,08545.1944,W,0.61,125.13,201022,,,A*63
$GNVTG,125.13,T,,M,0.61,N,1.13,K,A*23
$GNRMC,045618.000,A,3813.1407,N,08545.1946,W,0.37,346.85,201022,,,A*6A$GNVTG,346.85,T,,M,0.37,N,0.68,K,A*251946,W,0.37,346.85,201022,,,A*6A$GNRMC,045613.000,A,3813.1407,N,08545.1946,W,0.40,121.13,201022,,,A*6D$GNVTG,121.13,T,,M,0.40,N,0.73,K,A*231946,W,0.40,121.13,201022,,,A*6D$GNRMC,045608.000,A,3813.1410,N,08545.1945,W,0.42,121.13,201022,,,A*60$GNVTG,121.13,T,,M,0.42,N,0.78,K,A*2A1945,èf$GPGSA,A,3,01,17,07,21,19,14,13,30,08,,,,1.08,0.80,0.73*00$GLGSA,A,3,85,87,75,76,,,,,,,,,1.08,0.80,0.73*1A$GNRMC,045619.000,A,3813.1406,N,08545.1944,W,0.61,125.13,201022,,,A*63$GNVTG,125.13,T,,M,0.61,N,1.13,K,A*23$GNGGA,045620.000,3813.1406,N,08545.1944,W,1,13,0.80,167.1,M,-33.2,M,,*4F
$GPGSA,A,3,01,17,07,21,19,14,13,30,08,,,,1.08,0.80,0.73*00
$GLGSA,A,3,85,87,75,76,,,,,,,,,1.08,0.80,0.73*1A
$GNRMC,045620.000,A,3813.1406,N,08545.1944,W,0.14,125.13,201022,,,A*6B
$GNVTG,125.13,T,,M,0.14,N,0.25,K,A*25
$GNRMC,045618.000,A,3813.1407,N,08545.1946,W,0.37,346.85,201022,,,A*6A$GNVTG,346.85,T,,M,0.37,N,0.68,K,A*251946,W,0.37,346.85,201022,,,A*6A$GNRMC,045613.000,A,3813.1407,N,08545.1946,W,0.40,121.13,201022,,,A*6D$GNVTG,121.13,T,,M,0.40,N,0.73,K,A*231946,èf$GPGSA,A,3,01,17,07,21,19,14,13,30,08,,,,1.08,0.80,0.73*00$GLGSA,A,3,85,87,75,76,,,,,,,,,1.08,0.80,0.73*1A0,0.73*00$GNRMC,045620.000,A,3813.1406,N,08545.1944,W,0.14,125.13,201022,,,A*6B$GNVTG,125.13,T,,M,0.14,N,0.25,K,A*25$GNGGA,045621.000,3813.1406,N,08545.1945,W,1,13,0.80,167.1,M,-33.2,M,,*4F
$GPGSA,A,3,01,17,07,21,19,14,13,30,08,,,,1.08,0.80,0.73*00
$GLGSA,A,3,85,87,75,76,,,,,,,,,1.08,0.80,0.73*1A
$GNRMC,045621.000,A,3813.1406,N,08545.1945,W,0.08,125.13,201022,,,A*66
$GNVTG,125.13,T,,M,0.08,N,0.15,K,A*2B
$GNRMC,045618.000,A,3813.1407,N,08545.1946,W,0.37,346.85,201022,,,A*6A$GNVTG,346.85,T,,M,0.37,N,0.68,K,A*251946,W,0.37,346.85,201022,,,A*6A$GNRMC,045613.000,A,3813.1407,N,08545.1946,W,0.40,121.13,201022,,,A*6D$GNVTG,121.13,T,,M,0.40,N,0.73,K,A*231946,èf$GPGSA,A,3,01,17,07,21,19,14,13,30,08,,,,1.08,0.80,0.73*00$GLGSA,A,3,85,87,75,76,,,,,,,,,1.08,0.80,0.73*1A$GNRMC,045621.000,A,3813.1406,N,08545.1945,W,0.08,125.13,201022,,,A*66$GNVTG,125.13,T,,M,0.08,N,0.15,K,A*2B$GNGGA,045622.000,3813.1406,N,08545.1944,W,1,12,0.82,167.1,M,-33.2,M,,*4E
$GPGSA,A,3,01,17,07,21,19,14,13,30,08,,,,1.10,0.82,0.74*0C
$GLGSA,A,3,85,75,76,,,,,,,,,,1.10,0.82,0.74*19
$GPGSV,3,1,12,14,66,334,35,30,65,209,31,17,56,256,34,01,55,089,37*71
$GPGSV,3,2,12,07,38,168,22,21,37,054,29,19,24,242,30,13,21,283,19*7C
$GPGSV,3,3,12,08,11,057,17,33,06,102,,15,03,307,,03,02,121,*73
$GLGSV,2,1,07,76,70,085,22,87,53,205,,77,47,332,,75,18,127,19*62
$GLGSV,2,2,07,85,14,031,26,88,06,209,24,68,02,321,*5B
$GNRMC,045622.000,A,3813.1406,N,08545.1944,W,0.20,125.13,201022,,,A*6E
$GNVTG,125.13,T,,M,0.20,N,0.37,K,A*21
$GNRMC,045618.000,A,3813.1407,N,08545.1946,W,0.37,346.85,201022,,,A*6A$GNVTG,346.85,T,,M,0.37,N,0.68,K,A*251946,W,0.37,346.85,201022,,,A*6A$GNRMC,045613.000,A,3813.1407,N,08545.1946,W,0.40,121.13,201022,,,A*6D$GNVTG,121.13,T,,M,0.40,N,0.73,K,A*231946,èf$GPGSA,A,3,01,17,07,21,19,14,13,30,08,,,,1.10,0.82,0.74*0C$GLGSA,A,3,85,75,76,,,,,,,,,,1.10,0.82,0.74*19$GPGSV,3,1,12,14,66,334,35,30,65,209,31,17,56,256,34,01,55,089,37*71$GPGSV,3,2,12,07,38,168,22,21,37,054,29,19,24,242,30,13,21,283,19*7C$GPGSV,3,3,12,08,11,057,17,33,06,102,,15,03,307,,03,02,121,*73$GLGSV,2,1,07,76,70,085,22,87,53,205,,77,47,332,,75,18,127,19*62$GLGSV,2,2,07,85,14,031,26,88,06,209,24,68,02,321,*5B$GNRMC,045622.000,A,3813.1406,N,08545.1944,W,0.20,125.13,201022,,,A*6E$GNVTG,125.13,T,,M,0.20,N,0.37,K,A*21$GNGGA,045623.000,3813.1406,N,08545.1945,W,1,12,0.82,167.2,M,-33.2,M,,*4D
$GPGSA,A,3,01,17,07,21,19,14,13,30,08,,,,1.10,0.82,0.74*0C
$GLGSA,A,3,85,75,76,,,,,,,,,,1.10,0.82,0.74*19
$GNRMC,045623.000,A,3813.1406,N,08545.1945,W,0.36,125.13,201022,,,A*69
$GNVTG,125.13,T,,M,0.36,N,0.67,K,A*23
$GNRMC,045618.000,A,3813.1407,N,08545.1946,W,0.37,346.85,201022,,,A*6A$GNVTG,346.85,T,,M,0.37,N,0.68,K,A*251946,W,0.37,346.85,201022,,,A*6A$GNRMC,045613.000,A,3813.1407,N,08545.1946,W,0.40,121.13,201022,,,A*6D$GNVTG,121.13,T,,M,0.40,N,0.73,K,A*231946,èf$GPGSA,A,3,01,17,07,21,19,14,13,30,08,,,,1.10,0.82,0.74*0C$GLGSA,A,3,85,75,76,,,,,,,,,,1.10,0.82,0.74*19$GNGGA,045624.000,3813.1406,N,08545.1944,W,1,12,0.82,167.1,M,-33.2,M,,*48
$GPGSA,A,3,01,17,07,21,19,14,13,30,08,,,,1.10,0.82,0.74*0C
$GLGSA,A,3,85,75,76,,,,,,,,,,1.10,0.82,0.74*19
$GNRMC,045624.000,A,3813.1406,N,08545.1944,W,0.13,125.13,201022,,,A*68
$GNVTG,125.13,T,,M,0.13,N,0.24,K,A*23
$GNRMC,045623.000,A,3813.1406,N,08545.1945,W,0.36,125.13,201022,,,A*69$GNVTG,125.13,T,,M,0.36,N,0.67,K,A*231945,W,0.36,125.13,201022,,,A*69$GNRMC,045618.000,A,3813.1407,N,08545.1946,W,0.37,346.85,201022,,,A*6A$GNVTG,346.85,T,,M,0.37,N,0.68,K,A*251946,W,0.37,346.85,201022,,,A*6A$GNRMC,045613.000,A,3813.1407,N,08545.1946,W,0.40,121.13,201022,,,A*6D$GNVTG,121.13,T,,M,0.40,N,0.73,K,A*231946,èf$GPGSA,A,3,01,17,07,21,19,14,13,30,08,,,,1.10,0.82,0.74*0C$GLGSA,A,3,85,75,76,,,,,,,,,,1.10,0.82,0.74*19$GNRMC,045624.000,A,3813.1406,N,08545.1944,W,0.13,125.13,201022,,,A*68$GNVTG,125.13,T,,M,0.13,N,0.24,K,A*23$GNGGA,045625.000,3813.1406,N,08545.1944,W,1,12,0.82,167.1,M,-33.2,M,,*49
$GPGSA,A,3,01,17,07,21,19,14,13,30,08,,,,1.10,0.82,0.74*0C
$GLGSA,A,3,85,75,76,,,,,,,,,,1.10,0.82,0.74*19
$GNRMC,045625.000,A,3813.1406,N,08545.1944,W,0.13,125.13,201022,,,A*69
$GNVTG,125.13,T,,M,0.13,N,0.25,K,A*22
$GNRMC,045623.000,A,3813.1406,N,08545.1945,W,0.36,125.13,201022,,,A*69$GNVTG,125.13,T,,M,0.36,N,0.67,K,A*231945,W,0.36,125.13,201022,,,A*69$GNRMC,045618.000,A,3813.1407,N,08545.1946,W,0.37,346.85,201022,,,A*6A$GNVTG,346.85,T,,M,0.37,N,0.68,K,A*251946,èf$GPGSA,A,3,01,17,07,21,19,14,13,30,08,,,,1.10,0.82,0.74*0C$GLGSA,A,3,85,75,76,,,,,,,,,,1.10,0.82,0.74*19$GNRMC,045625.000,A,3813.1406,N,08545.1944,W,0.13,125.13,201022,,,A*69$GNVTG,125.13,T,,M,0.13,N,0.25,K,A*22$GNGGA,045626.000,3813.1406,N,08545.1944,W,1,12,0.82,167.1,M,-33.2,M,,*4A
$GPGSA,A,3,01,17,07,21,19,14,13,30,08,,,,1.10,0.82,0.74*0C
$GLGSA,A,3,85,75,76,,,,,,,,,,1.10,0.82,0.74*19
$GNRMC,045626.000,A,3813.1406,N,08545.1944,W,0.35,125.13,201022,,,A*6E
$GNVTG,125.13,T,,M,0.35,N,0.64,K,A*23
$GNRMC,045623.000,A,3813.1406,N,08545.1945,W,0.36,125.13,201022,,,A*69$GNVTG,125.13,T,,M,0.36,N,0.67,K,A*231945,W,0.36,125.13,201022,,,A*69$GNRMC,045618.000,A,3813.1407,N,08545.1946,W,0.37,346.85,201022,,,A*6A$GNVTG,346.85,T,,M,0.37,N,0.68,K,A*251946,èf$GPGSA,A,3,01,17,07,21,19,14,13,30,08,,,,1.10,0.82,0.74*0C$GLGSA,A,3,85,75,76,,,,,,,,,,1.10,0.82,0.74*19$GNRMC,045626.000,A,3813.1406,N,08545.1944,W,0.35,125.13,201022,,,A*6E$GNVTG,125.13,T,,M,0.35,N,0.64,K,A*231944,W,0.35,125.13,201022,,,A*6E$GNGGA,045627.000,3813.1406,N,08545.1944,W,1,12,0.82,167.3,M,-33.2,M,,*49
$GPGSA,A,3,01,17,07,21,19,14,13,30,08,,,,1.10,0.82,0.74*0C
$GLGSA,A,3,85,75,76,,,,,,,,,,1.10,0.82,0.74*19
$GPGSV,3,1,12,14,66,334,35,30,65,209,31,17,56,256,35,01,55,089,36*71
$GPGSV,3,2,12,07,38,168,22,21,37,054,29,19,24,242,30,13,21,283,21*77
$GPGSV,3,3,12,08,11,057,17,15,03,307,,03,02,121,,34,,,*41
$GLGSV,2,1,07,76,70,085,23,87,53,205,,77,47,332,,75,18,127,18*62
$GLGSV,2,2,07,85,14,031,26,88,06,209,23,68,02,320,*5D
$GNRMC,045627.000,A,3813.1406,N,08545.1944,W,0.36,125.13,201022,,,A*6C
$GNVTG,125.13,T,,M,0.36,N,0.66,K,A*22
$GNRMC,045623.000,A,3813.1406,N,08545.1945,W,0.36,125.13,201022,,,A*69$GNVTG,125.13,T,,M,0.36,N,0.67,K,A*231945,W,0.36,125.13,201022,,,A*69$GNRMC,045618.000,A,3813.1407,N,08545.1946,W,0.37,346.85,201022,,,A*6A$GNVTG,346.85,T,,M,0.37,N,0.68,K,A*251946,èf$GPGSA,A,3,01,17,07,21,19,14,13,30,08,,,,1.10,0.82,0.74*0C$GLGSA,A,3,85,75,76,,,,,,,,,,1.10,0.82,0.74*19$GPGSV,3,1,12,14,66,334,35,30,65,209,31,17,56,256,35,01,55,089,36*71$GPGSV,3,2,12,07,38,168,22,21,37,054,29,19,24,242,30,13,21,283,21*77$GPGSV,3,3,12,08,11,057,17,15,03,307,,03,02,121,,34,,,*41$GLGSV,2,1,07,76,70,085,23,87,53,205,,77,47,332,,75,18,127,18*62$GLGSV,2,2,07,85,14,031,26,88,06,209,23,68,02,320,*5D$GNRMC,045627.000,A,3813.1406,N,08545.1944,W,0.36,125.13,201022,,,A*6C$GNVTG,125.13,T,,M,0.36,N,0.66,K,A*22$GNGGA,045628.000,3813.1406,N,08545.1945,W,1,11,0.84,167.3,M,-33.2,M,,*42
$GPGSA,A,3,01,17,07,19,14,13,30,08,,,,,1.12,0.84,0.74*0B
$GLGSA,A,3,85,75,76,,,,,,,,,,1.12,0.84,0.74*1D
$GNRMC,045628.000,A,3813.1406,N,08545.1945,W,0.28,125.13,201022,,,A*6D
$GNVTG,125.13,T,,M,0.28,N,0.52,K,A*2A
$GNRMC,045623.000,A,3813.1406,N,08545.1945,W,0.36,125.13,201022,,,A*69$GNVTG,125.13,T,,M,0.36,N,0.67,K,A*231945,W,0.36,125.13,201022,,,A*69$GNRMC,045618.000,A,3813.1407,N,08545.1946,W,0.37,346.85,201022,,,A*6A$GNVTG,346.85,T,,M,0.37,N,0.68,K,A*251946,èf$GPGSA,A,3,01,17,07,19,14,13,30,08,,,,,1.12,0.84,0.74*0B$GLGSA,A,3,85,75,76,,,,,,,,,,1.12,0.84,0.74*1D$GNGGA,045629.000,3813.1405,N,08545.1944,W,1,13,0.80,167.2,M,-33.2,M,,*46
$GPGSA,A,3,01,17,07,21,19,14,13,30,08,,,,1.08,0.80,0.73*00
$GLGSA,A,3,85,87,75,76,,,,,,,,,1.08,0.80,0.73*1A
